{"generatedAt":"2026-07-15","dataSource":"real","pilotRegion":"전북","notes":["전북 파일럿=실데이터(메인): 전라북도 온열질환 구급출동(원본 466건, 2014~2022) 중 여름 15주 창(2017~2022 고온기) 335건을 실좌표 출동점 335개로 인제스트(연중 데이터라 한랭 등 비여름 기록은 폭염 콘솔에서 제외). 실좌표 기반으로 출동 히트맵·쉼터 공백지대 격자를 실계산(좌표는 소수 3자리 스냅으로 재식별 차단).","전북 온열 출동시점(여름) 시간단위 기온: 중앙값 30.4℃ · 33℃↑ 13.9% (30℃↑ 57.9%, n=273) — 온열 출동의 고온 편중을 실측으로 확인.","전북 고령 취약지표=실데이터: 고령자 안전사고 구급출동 424,185행 스트리밍 집계로 시군 고령EMS 부하(인구천명당)를 census 고령비율과 5:5 블렌딩(학습연도만, leak-free).","[전북 실측 검증] 온열 구급은 희소사건이라 시군×주 정밀 예측은 제한적(AUC 0.666, 개선 5%). 반면 취약도 랭킹(구조적 취약지 상시 타겟팅)은 강함: 고령EMS 취약순위 holdout precision@5=0.8, AUC 0.911(2017-21학습→2022실측). → 서울과 동일 방법론으로 전북에서도 '광역 대비 + 취약지 상시 집중' 가치 재현.","서울 파일럿=실데이터(검증): 서울소방재난본부 온열질환 구급출동 여름 15주 창 기준 219건(원본 459건)을 자치구×주(週)로 집계. 학습 2017~2021 → 예측 2022 여름 → 실측 비교(holdout 백테스트). 서울 원자료에 좌표가 없어 지도 출동점은 자치구 단위 실건수의 '시각화용 근사배치'이며 격자 좌표는 근사임(집계 수치는 실측).","서울 고령 취약지표=실데이터: 고령자 안전사고 구급출동 889,133행 스트리밍 집계로 자치구 고령EMS 부하(인구천명당)를 census 고령비율과 5:5 블렌딩(학습연도만).","[서울 실측 검증] 온열 구급은 연 50~104건/서울 규모의 희소사건이라 자치구×주 정밀 예측은 평년 수준에 그침(AUC 0.509, 개선 -2%). 반면 고령EMS 취약순위 holdout은 precision@5=1.0, AUC 1.0로 강함(2017-21학습→2022실측).","무더위쉼터=실좌표(행안부 무더위쉼터 전량, 전국 58,241개소 스트리밍 인제스트 중 파일럿 귀속분): 전북 5,617개소·서울 3,721개소를 최근접 생활권에 귀속(도로명주소 앞토큰 선필터 + 0.25° 가드). 이용가능인원·야간/주말 운영·유형을 실값으로 매핑. 출동 히트맵의 최근접쉼터거리와 쉼터 공백지대 격자는 이 실좌표 전량 기준으로 계산한다.","지도에 담는 쉼터는 성능·용량을 위해 결정론적 표본만 표시(전북 표시 400/전량 5,617, 서울 표시 400/전량 3,721) — 거리·공백지대 계산은 전량 기준이므로 표본 축약이 최근접거리·공백지대에 영향 없음.","전국 컨텍스트: 소방청 일일상황보고 3,199일 기준 폭염기(7~8월) 전국 구급출동이 평시 대비 1.11배(일평균 5214건 vs 4713건). 온열 특정 폭증이 아닌 '구급 전반 수요 증가' 근거로 사용."],"regions":[{"code":"52111","name":"전주시","sido":"전북특별자치도","centroid":{"lat":35.8242,"lng":127.148},"population":642000,"elderlyRatio":0.158,"shelterCount":430,"areaKm2":206},{"code":"52130","name":"군산시","sido":"전북특별자치도","centroid":{"lat":35.9676,"lng":126.7369},"population":261000,"elderlyRatio":0.205,"shelterCount":250,"areaKm2":396},{"code":"52140","name":"익산시","sido":"전북특별자치도","centroid":{"lat":35.9483,"lng":126.9577},"population":273000,"elderlyRatio":0.213,"shelterCount":300,"areaKm2":507},{"code":"52180","name":"정읍시","sido":"전북특별자치도","centroid":{"lat":35.5699,"lng":126.8559},"population":104000,"elderlyRatio":0.285,"shelterCount":320,"areaKm2":693},{"code":"52190","name":"남원시","sido":"전북특별자치도","centroid":{"lat":35.4164,"lng":127.3905},"population":78000,"elderlyRatio":0.288,"shelterCount":280,"areaKm2":752},{"code":"52210","name":"김제시","sido":"전북특별자치도","centroid":{"lat":35.8035,"lng":126.8809},"population":81000,"elderlyRatio":0.295,"shelterCount":290,"areaKm2":545},{"code":"52710","name":"완주군","sido":"전북특별자치도","centroid":{"lat":35.9046,"lng":127.162},"population":92000,"elderlyRatio":0.224,"shelterCount":240,"areaKm2":821},{"code":"52720","name":"진안군","sido":"전북특별자치도","centroid":{"lat":35.7917,"lng":127.4248},"population":25000,"elderlyRatio":0.351,"shelterCount":150,"areaKm2":789},{"code":"52730","name":"무주군","sido":"전북특별자치도","centroid":{"lat":36.0068,"lng":127.6608},"population":23000,"elderlyRatio":0.342,"shelterCount":140,"areaKm2":632},{"code":"52740","name":"장수군","sido":"전북특별자치도","centroid":{"lat":35.6473,"lng":127.5215},"population":22000,"elderlyRatio":0.349,"shelterCount":130,"areaKm2":533},{"code":"52750","name":"임실군","sido":"전북특별자치도","centroid":{"lat":35.6177,"lng":127.289},"population":27000,"elderlyRatio":0.353,"shelterCount":160,"areaKm2":597},{"code":"52770","name":"순창군","sido":"전북특별자치도","centroid":{"lat":35.3744,"lng":127.1376},"population":27000,"elderlyRatio":0.352,"shelterCount":150,"areaKm2":496},{"code":"52790","name":"고창군","sido":"전북특별자치도","centroid":{"lat":35.4357,"lng":126.7019},"population":52000,"elderlyRatio":0.323,"shelterCount":230,"areaKm2":607},{"code":"52800","name":"부안군","sido":"전북특별자치도","centroid":{"lat":35.7318,"lng":126.733},"population":50000,"elderlyRatio":0.321,"shelterCount":210,"areaKm2":493},{"code":"11110","name":"종로구","sido":"서울특별시","centroid":{"lat":37.5731,"lng":126.9793},"population":142000,"elderlyRatio":0.213,"shelterCount":120,"areaKm2":24},{"code":"11140","name":"중구","sido":"서울특별시","centroid":{"lat":37.5636,"lng":126.9976},"population":121000,"elderlyRatio":0.221,"shelterCount":110,"areaKm2":10},{"code":"11170","name":"용산구","sido":"서울특별시","centroid":{"lat":37.5326,"lng":126.99},"population":217000,"elderlyRatio":0.197,"shelterCount":150,"areaKm2":22},{"code":"11200","name":"성동구","sido":"서울특별시","centroid":{"lat":37.5634,"lng":127.0369},"population":281000,"elderlyRatio":0.183,"shelterCount":160,"areaKm2":17},{"code":"11215","name":"광진구","sido":"서울특별시","centroid":{"lat":37.5385,"lng":127.0823},"population":339000,"elderlyRatio":0.171,"shelterCount":170,"areaKm2":17},{"code":"11230","name":"동대문구","sido":"서울특별시","centroid":{"lat":37.5744,"lng":127.0398},"population":339000,"elderlyRatio":0.205,"shelterCount":180,"areaKm2":14},{"code":"11260","name":"중랑구","sido":"서울특별시","centroid":{"lat":37.6065,"lng":127.0927},"population":387000,"elderlyRatio":0.205,"shelterCount":190,"areaKm2":19},{"code":"11290","name":"성북구","sido":"서울특별시","centroid":{"lat":37.5894,"lng":127.0167},"population":432000,"elderlyRatio":0.196,"shelterCount":210,"areaKm2":25},{"code":"11305","name":"강북구","sido":"서울특별시","centroid":{"lat":37.6396,"lng":127.0257},"population":295000,"elderlyRatio":0.234,"shelterCount":200,"areaKm2":24},{"code":"11320","name":"도봉구","sido":"서울특별시","centroid":{"lat":37.6688,"lng":127.0471},"population":312000,"elderlyRatio":0.224,"shelterCount":190,"areaKm2":21},{"code":"11350","name":"노원구","sido":"서울특별시","centroid":{"lat":37.6542,"lng":127.0568},"population":497000,"elderlyRatio":0.198,"shelterCount":240,"areaKm2":35},{"code":"11380","name":"은평구","sido":"서울특별시","centroid":{"lat":37.6027,"lng":126.9291},"population":467000,"elderlyRatio":0.205,"shelterCount":230,"areaKm2":30},{"code":"11410","name":"서대문구","sido":"서울특별시","centroid":{"lat":37.5791,"lng":126.9368},"population":308000,"elderlyRatio":0.197,"shelterCount":170,"areaKm2":18},{"code":"11440","name":"마포구","sido":"서울특별시","centroid":{"lat":37.5663,"lng":126.9019},"population":366000,"elderlyRatio":0.171,"shelterCount":180,"areaKm2":24},{"code":"11470","name":"양천구","sido":"서울특별시","centroid":{"lat":37.5169,"lng":126.8664},"population":437000,"elderlyRatio":0.171,"shelterCount":200,"areaKm2":17},{"code":"11500","name":"강서구","sido":"서울특별시","centroid":{"lat":37.5509,"lng":126.8495},"population":568000,"elderlyRatio":0.185,"shelterCount":260,"areaKm2":41},{"code":"11530","name":"구로구","sido":"서울특별시","centroid":{"lat":37.4954,"lng":126.8874},"population":396000,"elderlyRatio":0.197,"shelterCount":200,"areaKm2":20},{"code":"11545","name":"금천구","sido":"서울특별시","centroid":{"lat":37.4569,"lng":126.8956},"population":229000,"elderlyRatio":0.189,"shelterCount":140,"areaKm2":13},{"code":"11560","name":"영등포구","sido":"서울특별시","centroid":{"lat":37.5264,"lng":126.8962},"population":376000,"elderlyRatio":0.182,"shelterCount":190,"areaKm2":24},{"code":"11590","name":"동작구","sido":"서울특별시","centroid":{"lat":37.5124,"lng":126.9393},"population":383000,"elderlyRatio":0.193,"shelterCount":180,"areaKm2":16},{"code":"11620","name":"관악구","sido":"서울특별시","centroid":{"lat":37.4784,"lng":126.9516},"population":488000,"elderlyRatio":0.184,"shelterCount":230,"areaKm2":30},{"code":"11650","name":"서초구","sido":"서울특별시","centroid":{"lat":37.4836,"lng":127.0327},"population":408000,"elderlyRatio":0.166,"shelterCount":200,"areaKm2":47},{"code":"11680","name":"강남구","sido":"서울특별시","centroid":{"lat":37.5172,"lng":127.0473},"population":533000,"elderlyRatio":0.158,"shelterCount":250,"areaKm2":40},{"code":"11710","name":"송파구","sido":"서울특별시","centroid":{"lat":37.5145,"lng":127.1066},"population":656000,"elderlyRatio":0.166,"shelterCount":280,"areaKm2":34},{"code":"11740","name":"강동구","sido":"서울특별시","centroid":{"lat":37.5301,"lng":127.1238},"population":462000,"elderlyRatio":0.176,"shelterCount":220,"areaKm2":25}],"shelters":[{"id":"52111-RS01076","name":"전북은행송천지점","lat":35.85572,"lng":127.11861,"regionCode":"52111","type":"생활밀착민간시설","capacity":10,"operatingHours":"주간 운영(야간·주말 미운영)","isOutdoor":false},{"id":"52111-RS04471","name":"우신경로당","lat":35.87232,"lng":127.08197,"regionCode":"52111","type":"특정계층이용시설","capacity":17,"operatingHours":"주간 운영(야간·주말 미운영)","isOutdoor":false},{"id":"52111-RS07963","name":"금암1경로당","lat":35.83912,"lng":127.13389,"regionCode":"52111","type":"특정계층이용시설","capacity":27,"operatingHours":"주간 운영(야간·주말 미운영)","isOutdoor":false},{"id":"52111-RS07964","name":"금암1부노회경로당","lat":35.83964,"lng":127.13495,"regionCode":"52111","type":"특정계층이용시설","capacity":20,"operatingHours":"주간 운영(야간·주말 미운영)","isOutdoor":false},{"id":"52111-RS10720","name":"중산공원","lat":35.82439,"lng":127.12138,"regionCode":"52111","type":"야외시설","capacity":8,"operatingHours":"주간 운영(야간·주말 미운영)","isOutdoor":false},{"id":"52111-RS13905","name":"그린타운2차정자","lat":35.78491,"lng":127.13489,"regionCode":"52111","type":"야외시설","capacity":5,"operatingHours":"주간 운영(야간·주말 미운영)","isOutdoor":false},{"id":"52111-RS14388","name":"금암경로당","lat":35.8367,"lng":127.1294,"regionCode":"52111","type":"특정계층이용시설","capacity":96,"operatingHours":"주간 운영(야간·주말 미운영)","isOutdoor":false},{"id":"52111-RS15441","name":"신성경로당","lat":35.83979,"lng":127.12307,"regionCode":"52111","type":"특정계층이용시설","capacity":12,"operatingHours":"주간 운영(야간·주말 미운영)","isOutdoor":false},{"id":"52111-RS16112","name":"칠일경로당","lat":35.85068,"lng":127.10572,"regionCode":"52111","type":"특정계층이용시설","capacity":35,"operatingHours":"주간 운영(야간·주말 미운영)","isOutdoor":false},{"id":"52111-RS20074","name":"삼성경로당","lat":35.86219,"lng":127.11604,"regionCode":"52111","type":"특정계층이용시설","capacity":8,"operatingHours":"주간 운영(야간·주말 미운영)","isOutdoor":false},{"id":"52111-RS20364","name":"반월2LH아파트경로당","lat":35.87189,"lng":127.07109,"regionCode":"52111","type":"특정계층이용시설","capacity":42,"operatingHours":"주간 운영(야간·주말 미운영)","isOutdoor":false},{"id":"52111-RS21418","name":"전북은행서신동지점","lat":35.83089,"lng":127.11619,"regionCode":"52111","type":"생활밀착민간시설","capacity":10,"operatingHours":"주간 운영(야간·주말 미운영)","isOutdoor":false},{"id":"52111-RS25507","name":"엘에이치이노팰리스경로당","lat":35.84582,"lng":127.05992,"regionCode":"52111","type":"특정계층이용시설","capacity":30,"operatingHours":"주간 운영(야간·주말 미운영)","isOutdoor":false},{"id":"52111-RS25550","name":"롯데여자경로당","lat":35.86667,"lng":127.1141,"regionCode":"52111","type":"특정계층이용시설","capacity":5,"operatingHours":"주간 운영(야간·주말 미운영)","isOutdoor":false},{"id":"52111-RS30280","name":"아중1차제일경로당","lat":35.82971,"lng":127.16773,"regionCode":"52111","type":"특정계층이용시설","capacity":9,"operatingHours":"주간 운영(야간·주말 미운영)","isOutdoor":false},{"id":"52111-RS33069","name":"롯데1차경로당","lat":35.80745,"lng":127.11239,"regionCode":"52111","type":"특정계층이용시설","capacity":25,"operatingHours":"주간+주말 운영(야간 미운영)","isOutdoor":false},{"id":"52111-RS34060","name":"혁신도시에코르3단지","lat":35.82663,"lng":127.02338,"regionCode":"52111","type":"특정계층이용시설","capacity":27,"operatingHours":"주간 운영(야간·주말 미운영)","isOutdoor":false},{"id":"52111-RS34535","name":"도시혁신센터모정","lat":35.82846,"lng":127.14766,"regionCode":"52111","type":"야외시설","capacity":5,"operatingHours":"주간 운영(야간·주말 미운영)","isOutdoor":false},{"id":"52111-RS34750","name":"한양경로당","lat":35.86058,"lng":127.1129,"regionCode":"52111","type":"특정계층이용시설","capacity":21,"operatingHours":"주간 운영(야간·주말 미운영)","isOutdoor":false},{"id":"52111-RS37716","name":"신흥경로당","lat":35.76125,"lng":127.21622,"regionCode":"52111","type":"특정계층이용시설","capacity":31,"operatingHours":"주간 운영(야간·주말 미운영)","isOutdoor":false},{"id":"52111-RS38369","name":"일심(휴먼시아3단지)경로당","lat":35.80817,"lng":127.10162,"regionCode":"52111","type":"특정계층이용시설","capacity":29,"operatingHours":"주간 운영(야간·주말 미운영)","isOutdoor":false},{"id":"52111-RS38606","name":"학산(한성)경로당","lat":35.79444,"lng":127.14115,"regionCode":"52111","type":"특정계층이용시설","capacity":21,"operatingHours":"주간 운영(야간·주말 미운영)","isOutdoor":false},{"id":"52111-RS38685","name":"지안리즈경로당","lat":35.79318,"lng":127.14099,"regionCode":"52111","type":"특정계층이용시설","capacity":11,"operatingHours":"주간 운영(야간·주말 미운영)","isOutdoor":false},{"id":"52111-RS41021","name":"영창경로당","lat":35.80354,"lng":127.14587,"regionCode":"52111","type":"특정계층이용시설","capacity":16,"operatingHours":"주간 운영(야간·주말 미운영)","isOutdoor":false},{"id":"52111-RS41103","name":"축령마을회관","lat":35.76062,"lng":127.03275,"regionCode":"52111","type":"특정계층이용시설","capacity":10,"operatingHours":"주간 운영(야간·주말 미운영)","isOutdoor":false},{"id":"52111-RS41527","name":"남부노인복지센터","lat":35.7938,"lng":127.12261,"regionCode":"52111","type":"특정계층이용시설","capacity":20,"operatingHours":"주간 운영(야간·주말 미운영)","isOutdoor":false},{"id":"52111-RS43265","name":"미치경로당","lat":35.70221,"lng":127.09117,"regionCode":"52111","type":"특정계층이용시설","capacity":26,"operatingHours":"주간 운영(야간·주말 미운영)","isOutdoor":false},{"id":"52111-RS43737","name":"상신광경로당","lat":35.7677,"lng":127.20973,"regionCode":"52111","type":"특정계층이용시설","capacity":34,"operatingHours":"주간 운영(야간·주말 미운영)","isOutdoor":false},{"id":"52111-RS44770","name":"호암경로당","lat":35.82781,"lng":127.12504,"regionCode":"52111","type":"특정계층이용시설","capacity":21,"operatingHours":"주간 운영(야간·주말 미운영)","isOutdoor":false},{"id":"52111-RS45457","name":"사랑의집경로당","lat":35.82723,"lng":127.13695,"regionCode":"52111","type":"특정계층이용시설","capacity":13,"operatingHours":"주간 운영(야간·주말 미운영)","isOutdoor":false},{"id":"52111-RS50145","name":"자인경로당","lat":35.85376,"lng":127.10976,"regionCode":"52111","type":"특정계층이용시설","capacity":25,"operatingHours":"주간 운영(야간·주말 미운영)","isOutdoor":false},{"id":"52111-RS50200","name":"신흥경로당","lat":35.84246,"lng":127.04207,"regionCode":"52111","type":"특정계층이용시설","capacity":27,"operatingHours":"주간 운영(야간·주말 미운영)","isOutdoor":false},{"id":"52111-RS51398","name":"송천1동주민자치센터","lat":35.85712,"lng":127.12099,"regionCode":"52111","type":"공공시설","capacity":40,"operatingHours":"주간 운영(야간·주말 미운영)","isOutdoor":false},{"id":"52111-RS51978","name":"노송동주민자치센터","lat":35.82441,"lng":127.15834,"regionCode":"52111","type":"공공시설","capacity":100,"operatingHours":"주간 운영(야간·주말 미운영)","isOutdoor":false},{"id":"52111-RS52617","name":"금암도서관","lat":35.8363,"lng":127.1401,"regionCode":"52111","type":"공공시설","capacity":15,"operatingHours":"주간 운영(야간·주말 미운영)","isOutdoor":false},{"id":"52111-RS53355","name":"완산구청","lat":35.81219,"lng":127.11988,"regionCode":"52111","type":"공공시설","capacity":81,"operatingHours":"주간 운영(야간·주말 미운영)","isOutdoor":false},{"id":"52111-RS57421","name":"전북은행아중지점","lat":35.83026,"lng":127.16907,"regionCode":"52111","type":"생활밀착민간시설","capacity":57,"operatingHours":"주간 운영(야간·주말 미운영)","isOutdoor":false},{"id":"52111-RS58039","name":"교동경로당","lat":35.81254,"lng":127.15302,"regionCode":"52111","type":"특정계층이용시설","capacity":12,"operatingHours":"주간 운영(야간·주말 미운영)","isOutdoor":false},{"id":"52130-RS03532","name":"오산촌경로당","lat":35.90508,"lng":126.77805,"regionCode":"52130","type":"특정계층이용시설","capacity":21,"operatingHours":"주간 운영(야간·주말 미운영)","isOutdoor":false},{"id":"52130-RS05186","name":"현대백조경로당","lat":35.96657,"lng":126.69223,"regionCode":"52130","type":"특정계층이용시설","capacity":24,"operatingHours":"주간 운영(야간·주말 미운영)","isOutdoor":false},{"id":"52130-RS05188","name":"우진남자경로당","lat":35.97133,"lng":126.70342,"regionCode":"52130","type":"특정계층이용시설","capacity":18,"operatingHours":"주간 운영(야간·주말 미운영)","isOutdoor":false},{"id":"52130-RS05358","name":"중야경로당","lat":35.90523,"lng":126.65522,"regionCode":"52130","type":"특정계층이용시설","capacity":22,"operatingHours":"주간 운영(야간·주말 미운영)","isOutdoor":false},{"id":"52130-RS06988","name":"선제경로당","lat":35.92313,"lng":126.68301,"regionCode":"52130","type":"특정계층이용시설","capacity":28,"operatingHours":"주간 운영(야간·주말 미운영)","isOutdoor":false},{"id":"52130-RS07940","name":"수왕경로당","lat":35.91117,"lng":126.69818,"regionCode":"52130","type":"특정계층이용시설","capacity":17,"operatingHours":"주간 운영(야간·주말 미운영)","isOutdoor":false},{"id":"52130-RS08601","name":"현대1차아파트경로당","lat":35.95876,"lng":126.68708,"regionCode":"52130","type":"특정계층이용시설","capacity":37,"operatingHours":"주간 운영(야간·주말 미운영)","isOutdoor":false},{"id":"52130-RS08603","name":"유원아파트경로당","lat":35.96019,"lng":126.68923,"regionCode":"52130","type":"특정계층이용시설","capacity":60,"operatingHours":"주간 운영(야간·주말 미운영)","isOutdoor":false},{"id":"52130-RS09402","name":"모시공원내정자야외무더위쉼터","lat":35.97774,"lng":126.71215,"regionCode":"52130","type":"야외시설","capacity":10,"operatingHours":"주간 운영(야간·주말 미운영)","isOutdoor":false},{"id":"52130-RS09880","name":"청솔경로당","lat":35.96196,"lng":126.69659,"regionCode":"52130","type":"특정계층이용시설","capacity":22,"operatingHours":"주간 운영(야간·주말 미운영)","isOutdoor":false},{"id":"52130-RS10006","name":"당산경로당","lat":35.97483,"lng":126.78605,"regionCode":"52130","type":"특정계층이용시설","capacity":18,"operatingHours":"주간 운영(야간·주말 미운영)","isOutdoor":false},{"id":"52130-RS10442","name":"옥삼경로당","lat":35.89551,"lng":126.74115,"regionCode":"52130","type":"특정계층이용시설","capacity":30,"operatingHours":"주간 운영(야간·주말 미운영)","isOutdoor":false},{"id":"52130-RS13622","name":"문화경로당","lat":35.95392,"lng":126.80152,"regionCode":"52130","type":"특정계층이용시설","capacity":31,"operatingHours":"주간 운영(야간·주말 미운영)","isOutdoor":false},{"id":"52130-RS15994","name":"봉서경로당","lat":35.949,"lng":126.75096,"regionCode":"52130","type":"특정계층이용시설","capacity":21,"operatingHours":"주간 운영(야간·주말 미운영)","isOutdoor":false},{"id":"52130-RS16023","name":"오산경로당","lat":35.9147,"lng":126.68519,"regionCode":"52130","type":"특정계층이용시설","capacity":21,"operatingHours":"주간 운영(야간·주말 미운영)","isOutdoor":false},{"id":"52130-RS18205","name":"창성주공A경로당","lat":35.98393,"lng":126.7123,"regionCode":"52130","type":"특정계층이용시설","capacity":30,"operatingHours":"주간 운영(야간·주말 미운영)","isOutdoor":false},{"id":"52130-RS19530","name":"덕봉경로당","lat":35.97021,"lng":126.82678,"regionCode":"52130","type":"특정계층이용시설","capacity":43,"operatingHours":"주간 운영(야간·주말 미운영)","isOutdoor":false},{"id":"52130-RS19580","name":"신촌경로당","lat":35.91465,"lng":126.83416,"regionCode":"52130","type":"특정계층이용시설","capacity":12,"operatingHours":"주간 운영(야간·주말 미운영)","isOutdoor":false},{"id":"52130-RS19801","name":"영창B단지경로당","lat":35.95788,"lng":126.69931,"regionCode":"52130","type":"특정계층이용시설","capacity":33,"operatingHours":"주간 운영(야간·주말 미운영)","isOutdoor":false},{"id":"52130-RS20124","name":"하나리움시티아파트경로당","lat":35.96569,"lng":126.68031,"regionCode":"52130","type":"특정계층이용시설","capacity":32,"operatingHours":"주간 운영(야간·주말 미운영)","isOutdoor":false},{"id":"52130-RS20563","name":"금호타운경로당","lat":35.96727,"lng":126.70233,"regionCode":"52130","type":"특정계층이용시설","capacity":25,"operatingHours":"주간 운영(야간·주말 미운영)","isOutdoor":false},{"id":"52130-RS20564","name":"주공5차경로당","lat":35.9686,"lng":126.7075,"regionCode":"52130","type":"특정계층이용시설","capacity":36,"operatingHours":"주간 운영(야간·주말 미운영)","isOutdoor":false},{"id":"52130-RS21311","name":"미룡주공2단지경로당","lat":35.94318,"lng":126.68879,"regionCode":"52130","type":"특정계층이용시설","capacity":30,"operatingHours":"주간 운영(야간·주말 미운영)","isOutdoor":false},{"id":"52130-RS23742","name":"비사벌아파트경로당","lat":35.96024,"lng":126.69813,"regionCode":"52130","type":"특정계층이용시설","capacity":27,"operatingHours":"주간 운영(야간·주말 미운영)","isOutdoor":false},{"id":"52130-RS24727","name":"원당마을경로당","lat":35.95198,"lng":126.68031,"regionCode":"52130","type":"특정계층이용시설","capacity":31,"operatingHours":"주간 운영(야간·주말 미운영)","isOutdoor":false},{"id":"52130-RS26415","name":"제이파크경로당","lat":35.98058,"lng":126.67546,"regionCode":"52130","type":"특정계층이용시설","capacity":60,"operatingHours":"주간 운영(야간·주말 미운영)","isOutdoor":false},{"id":"52130-RS28850","name":"신흥경로당","lat":35.9867,"lng":126.70442,"regionCode":"52130","type":"특정계층이용시설","capacity":39,"operatingHours":"주간 운영(야간·주말 미운영)","isOutdoor":false},{"id":"52130-RS29842","name":"서해경로당","lat":35.97848,"lng":126.71046,"regionCode":"52130","type":"특정계층이용시설","capacity":24,"operatingHours":"주간 운영(야간·주말 미운영)","isOutdoor":false},{"id":"52130-RS30630","name":"내흥경로당","lat":35.99771,"lng":126.76562,"regionCode":"52130","type":"특정계층이용시설","capacity":22,"operatingHours":"주간 운영(야간·주말 미운영)","isOutdoor":false},{"id":"52130-RS33039","name":"신풍경로당","lat":35.97981,"lng":126.70105,"regionCode":"52130","type":"특정계층이용시설","capacity":28,"operatingHours":"주간 운영(야간·주말 미운영)","isOutdoor":false},{"id":"52130-RS39898","name":"흥남경로당","lat":35.97594,"lng":126.71635,"regionCode":"52130","type":"특정계층이용시설","capacity":21,"operatingHours":"주간 운영(야간·주말 미운영)","isOutdoor":false},{"id":"52130-RS40186","name":"미원경로당","lat":35.97893,"lng":126.71666,"regionCode":"52130","type":"특정계층이용시설","capacity":25,"operatingHours":"주간 운영(야간·주말 미운영)","isOutdoor":false},{"id":"52130-RS41061","name":"대동경로당","lat":35.99962,"lng":126.77695,"regionCode":"52130","type":"특정계층이용시설","capacity":28,"operatingHours":"주간 운영(야간·주말 미운영)","isOutdoor":false},{"id":"52130-RS41438","name":"미장휴먼시아경로당","lat":35.96299,"lng":126.72482,"regionCode":"52130","type":"특정계층이용시설","capacity":15,"operatingHours":"주간 운영(야간·주말 미운영)","isOutdoor":false},{"id":"52130-RS44213","name":"신영경로당","lat":35.9864,"lng":126.7185,"regionCode":"52130","type":"특정계층이용시설","capacity":41,"operatingHours":"주간+주말 운영(야간 미운영)","isOutdoor":false},{"id":"52130-RS47999","name":"창안경로당","lat":35.9908,"lng":126.81189,"regionCode":"52130","type":"특정계층이용시설","capacity":16,"operatingHours":"주간 운영(야간·주말 미운영)","isOutdoor":false},{"id":"52130-RS51850","name":"대야면사무소","lat":35.94665,"lng":126.81168,"regionCode":"52130","type":"공공시설","capacity":17,"operatingHours":"주간 운영(야간·주말 미운영)","isOutdoor":false},{"id":"52130-RS52226","name":"성산면사무소","lat":35.98962,"lng":126.78598,"regionCode":"52130","type":"공공시설","capacity":26,"operatingHours":"주간 운영(야간·주말 미운영)","isOutdoor":false},{"id":"52130-RS57908","name":"현대4차경로당","lat":35.96276,"lng":126.70462,"regionCode":"52130","type":"특정계층이용시설","capacity":24,"operatingHours":"주간 운영(야간·주말 미운영)","isOutdoor":false},{"id":"52140-RS04379","name":"석곡경로당","lat":36.11856,"lng":127.02821,"regionCode":"52140","type":"특정계층이용시설","capacity":12,"operatingHours":"주간 운영(야간·주말 미운영)","isOutdoor":false},{"id":"52140-RS07045","name":"용성경로당","lat":35.97839,"lng":126.88299,"regionCode":"52140","type":"특정계층이용시설","capacity":24,"operatingHours":"주간 운영(야간·주말 미운영)","isOutdoor":false},{"id":"52140-RS10979","name":"배산휴먼시아4단지@경로당","lat":35.95376,"lng":126.93732,"regionCode":"52140","type":"특정계층이용시설","capacity":50,"operatingHours":"주간 운영(야간·주말 미운영)","isOutdoor":false},{"id":"52140-RS11476","name":"심암경로당","lat":35.94541,"lng":127.01892,"regionCode":"52140","type":"특정계층이용시설","capacity":20,"operatingHours":"주간 운영(야간·주말 미운영)","isOutdoor":false},{"id":"52140-RS12051","name":"구산경로당","lat":36.01028,"lng":126.89712,"regionCode":"52140","type":"특정계층이용시설","capacity":15,"operatingHours":"주간 운영(야간·주말 미운영)","isOutdoor":false},{"id":"52140-RS13243","name":"입점경로당","lat":36.05058,"lng":126.87516,"regionCode":"52140","type":"특정계층이용시설","capacity":8,"operatingHours":"주간 운영(야간·주말 미운영)","isOutdoor":false},{"id":"52140-RS14191","name":"마전경로당","lat":35.88974,"lng":126.99445,"regionCode":"52140","type":"특정계층이용시설","capacity":45,"operatingHours":"주간+야간·주말 연장운영","isOutdoor":false},{"id":"52140-RS15631","name":"광산경로당","lat":35.93559,"lng":126.86568,"regionCode":"52140","type":"특정계층이용시설","capacity":19,"operatingHours":"주간 운영(야간·주말 미운영)","isOutdoor":false},{"id":"52140-RS20909","name":"토끼재경로당","lat":35.8769,"lng":126.99267,"regionCode":"52140","type":"특정계층이용시설","capacity":40,"operatingHours":"주간+야간·주말 연장운영","isOutdoor":false},{"id":"52140-RS21816","name":"장전경로당","lat":36.08989,"lng":126.92944,"regionCode":"52140","type":"특정계층이용시설","capacity":20,"operatingHours":"주간 운영(야간·주말 미운영)","isOutdoor":false},{"id":"52140-RS23165","name":"하신경로당","lat":36.12111,"lng":126.95943,"regionCode":"52140","type":"특정계층이용시설","capacity":42,"operatingHours":"주간 운영(야간·주말 미운영)","isOutdoor":false},{"id":"52140-RS23799","name":"신성경로당","lat":35.89156,"lng":127.03907,"regionCode":"52140","type":"특정계층이용시설","capacity":22,"operatingHours":"주간 운영(야간·주말 미운영)","isOutdoor":false},{"id":"52140-RS24146","name":"영등제일1차@경로당","lat":35.95755,"lng":126.9722,"regionCode":"52140","type":"특정계층이용시설","capacity":24,"operatingHours":"주간 운영(야간·주말 미운영)","isOutdoor":false},{"id":"52140-RS24160","name":"춘포원오산경로당","lat":35.93378,"lng":127.02682,"regionCode":"52140","type":"특정계층이용시설","capacity":15,"operatingHours":"주간 운영(야간·주말 미운영)","isOutdoor":false},{"id":"52140-RS24716","name":"옛뚝이경로당","lat":35.92139,"lng":126.96162,"regionCode":"52140","type":"특정계층이용시설","capacity":34,"operatingHours":"주간 운영(야간·주말 미운영)","isOutdoor":false},{"id":"52140-RS25645","name":"신구경로당","lat":36.01083,"lng":126.89313,"regionCode":"52140","type":"특정계층이용시설","capacity":20,"operatingHours":"주간 운영(야간·주말 미운영)","isOutdoor":false},{"id":"52140-RS28308","name":"동련경로당","lat":36.0086,"lng":126.9335,"regionCode":"52140","type":"특정계층이용시설","capacity":35,"operatingHours":"주간 운영(야간·주말 미운영)","isOutdoor":false},{"id":"52140-RS28309","name":"황교2마을경로당","lat":36.04217,"lng":126.93655,"regionCode":"52140","type":"특정계층이용시설","capacity":45,"operatingHours":"주간 운영(야간·주말 미운영)","isOutdoor":false},{"id":"52140-RS29737","name":"용회경로당","lat":35.98165,"lng":126.88099,"regionCode":"52140","type":"특정계층이용시설","capacity":25,"operatingHours":"주간 운영(야간·주말 미운영)","isOutdoor":false},{"id":"52140-RS31073","name":"익산군산축협함열제일지점","lat":36.07833,"lng":126.96404,"regionCode":"52140","type":"생활밀착민간시설","capacity":15,"operatingHours":"주간 운영(야간·주말 미운영)","isOutdoor":false},{"id":"52140-RS31088","name":"낭청내신경로당","lat":36.14435,"lng":127.01012,"regionCode":"52140","type":"특정계층이용시설","capacity":15,"operatingHours":"주간 운영(야간·주말 미운영)","isOutdoor":false},{"id":"52140-RS33507","name":"천마동경로당","lat":35.98061,"lng":127.05515,"regionCode":"52140","type":"특정계층이용시설","capacity":11,"operatingHours":"주간 운영(야간·주말 미운영)","isOutdoor":false},{"id":"52140-RS33519","name":"오산경로당","lat":35.95796,"lng":126.90866,"regionCode":"52140","type":"특정계층이용시설","capacity":23,"operatingHours":"주간+주말 운영(야간 미운영)","isOutdoor":false},{"id":"52140-RS33602","name":"금마구룡경로당","lat":36.01132,"lng":127.04394,"regionCode":"52140","type":"특정계층이용시설","capacity":32,"operatingHours":"주간 운영(야간·주말 미운영)","isOutdoor":false},{"id":"52140-RS34601","name":"익산농협북일지점","lat":35.96467,"lng":126.95446,"regionCode":"52140","type":"생활밀착민간시설","capacity":12,"operatingHours":"주간 운영(야간·주말 미운영)","isOutdoor":false},{"id":"52140-RS38317","name":"농소경로당","lat":36.12795,"lng":126.98784,"regionCode":"52140","type":"특정계층이용시설","capacity":14,"operatingHours":"주간 운영(야간·주말 미운영)","isOutdoor":false},{"id":"52140-RS41446","name":"영등라인1차@경로당","lat":35.94793,"lng":126.96886,"regionCode":"52140","type":"특정계층이용시설","capacity":25,"operatingHours":"주간 운영(야간·주말 미운영)","isOutdoor":false},{"id":"52140-RS41469","name":"대맹경로당","lat":36.1114,"lng":126.88978,"regionCode":"52140","type":"특정계층이용시설","capacity":24,"operatingHours":"주간 운영(야간·주말 미운영)","isOutdoor":false},{"id":"52140-RS43993","name":"창성경로당","lat":35.9757,"lng":126.88453,"regionCode":"52140","type":"특정계층이용시설","capacity":20,"operatingHours":"주간 운영(야간·주말 미운영)","isOutdoor":false},{"id":"52140-RS44832","name":"하전여자경로당","lat":35.95469,"lng":126.86462,"regionCode":"52140","type":"특정계층이용시설","capacity":12,"operatingHours":"주간 운영(야간·주말 미운영)","isOutdoor":false},{"id":"52140-RS45616","name":"하표경로당","lat":36.01542,"lng":126.98182,"regionCode":"52140","type":"특정계층이용시설","capacity":44,"operatingHours":"주간 운영(야간·주말 미운영)","isOutdoor":false},{"id":"52140-RS45713","name":"용안교동경로당","lat":36.11823,"lng":126.95309,"regionCode":"52140","type":"특정계층이용시설","capacity":68,"operatingHours":"주간 운영(야간·주말 미운영)","isOutdoor":false},{"id":"52140-RS46441","name":"장자경로당","lat":35.94542,"lng":126.84837,"regionCode":"52140","type":"특정계층이용시설","capacity":15,"operatingHours":"주간 운영(야간·주말 미운영)","isOutdoor":false},{"id":"52140-RS46646","name":"용곤경로당","lat":35.95818,"lng":126.92475,"regionCode":"52140","type":"특정계층이용시설","capacity":22,"operatingHours":"주간+주말 운영(야간 미운영)","isOutdoor":false},{"id":"52140-RS49078","name":"동산라인@경로당","lat":35.9299,"lng":126.97229,"regionCode":"52140","type":"특정계층이용시설","capacity":20,"operatingHours":"주간 운영(야간·주말 미운영)","isOutdoor":false},{"id":"52140-RS49079","name":"동산제일2차@경로당","lat":35.92935,"lng":126.95892,"regionCode":"52140","type":"특정계층이용시설","capacity":17,"operatingHours":"주간 운영(야간·주말 미운영)","isOutdoor":false},{"id":"52140-RS49695","name":"어남경로당","lat":36.10596,"lng":127.02387,"regionCode":"52140","type":"특정계층이용시설","capacity":24,"operatingHours":"주간+주말 운영(야간 미운영)","isOutdoor":false},{"id":"52140-RS49859","name":"신작천경로당","lat":35.95474,"lng":126.99608,"regionCode":"52140","type":"특정계층이용시설","capacity":38,"operatingHours":"주간 운영(야간·주말 미운영)","isOutdoor":false},{"id":"52140-RS49860","name":"우남콤비타운@경로당","lat":35.95989,"lng":126.99993,"regionCode":"52140","type":"특정계층이용시설","capacity":31,"operatingHours":"주간 운영(야간·주말 미운영)","isOutdoor":false},{"id":"52140-RS49884","name":"영무예다음@경로당","lat":35.93828,"lng":126.93893,"regionCode":"52140","type":"특정계층이용시설","capacity":36,"operatingHours":"주간 운영(야간·주말 미운영)","isOutdoor":false},{"id":"52140-RS50035","name":"송학현대@경로당","lat":35.94087,"lng":126.93799,"regionCode":"52140","type":"특정계층이용시설","capacity":66,"operatingHours":"주간 운영(야간·주말 미운영)","isOutdoor":false},{"id":"52140-RS50093","name":"마동주공@경로당","lat":35.9442,"lng":126.9664,"regionCode":"52140","type":"특정계층이용시설","capacity":25,"operatingHours":"주간 운영(야간·주말 미운영)","isOutdoor":false},{"id":"52140-RS50282","name":"송학지안리즈경로당","lat":35.94056,"lng":126.92926,"regionCode":"52140","type":"특정계층이용시설","capacity":56,"operatingHours":"주간 운영(야간·주말 미운영)","isOutdoor":false},{"id":"52140-RS54295","name":"망성농협","lat":36.13666,"lng":127.01918,"regionCode":"52140","type":"생활밀착민간시설","capacity":15,"operatingHours":"주간 운영(야간·주말 미운영)","isOutdoor":false},{"id":"52140-RS58057","name":"옥하경로당","lat":35.9929,"lng":126.88142,"regionCode":"52140","type":"특정계층이용시설","capacity":21,"operatingHours":"주간 운영(야간·주말 미운영)","isOutdoor":false},{"id":"52180-RS06924","name":"현대1차아파트경로당","lat":35.56315,"lng":126.87212,"regionCode":"52180","type":"특정계층이용시설","capacity":36,"operatingHours":"주간 운영(야간·주말 미운영)","isOutdoor":false},{"id":"52180-RS14122","name":"항월경로당","lat":35.54739,"lng":126.74962,"regionCode":"52180","type":"특정계층이용시설","capacity":24,"operatingHours":"주간 운영(야간·주말 미운영)","isOutdoor":false},{"id":"52180-RS14545","name":"대석경로당","lat":35.53463,"lng":126.89194,"regionCode":"52180","type":"특정계층이용시설","capacity":38,"operatingHours":"주간 운영(야간·주말 미운영)","isOutdoor":false},{"id":"52180-RS14640","name":"죽림경로당","lat":35.56625,"lng":126.84515,"regionCode":"52180","type":"특정계층이용시설","capacity":36,"operatingHours":"주간 운영(야간·주말 미운영)","isOutdoor":false},{"id":"52180-RS16106","name":"안당경로당","lat":35.51705,"lng":126.78326,"regionCode":"52180","type":"특정계층이용시설","capacity":30,"operatingHours":"주간 운영(야간·주말 미운영)","isOutdoor":false},{"id":"52180-RS21996","name":"백연경로당","lat":35.56281,"lng":126.73645,"regionCode":"52180","type":"특정계층이용시설","capacity":28,"operatingHours":"주간 운영(야간·주말 미운영)","isOutdoor":false},{"id":"52180-RS23997","name":"월영경로당","lat":35.52235,"lng":126.89301,"regionCode":"52180","type":"특정계층이용시설","capacity":33,"operatingHours":"주간 운영(야간·주말 미운영)","isOutdoor":false},{"id":"52180-RS24772","name":"금북경로당","lat":35.55304,"lng":126.88889,"regionCode":"52180","type":"특정계층이용시설","capacity":58,"operatingHours":"주간 운영(야간·주말 미운영)","isOutdoor":false},{"id":"52180-RS29601","name":"차단경로당","lat":35.50671,"lng":126.78129,"regionCode":"52180","type":"특정계층이용시설","capacity":20,"operatingHours":"주간 운영(야간·주말 미운영)","isOutdoor":false},{"id":"52180-RS30555","name":"상사경로당","lat":35.55791,"lng":126.86455,"regionCode":"52180","type":"특정계층이용시설","capacity":50,"operatingHours":"주간 운영(야간·주말 미운영)","isOutdoor":false},{"id":"52180-RS34055","name":"현대2차경로당","lat":35.55694,"lng":126.87196,"regionCode":"52180","type":"특정계층이용시설","capacity":36,"operatingHours":"주간 운영(야간·주말 미운영)","isOutdoor":false},{"id":"52180-RS34474","name":"엘드수목토아파트경로당","lat":35.55835,"lng":126.87587,"regionCode":"52180","type":"특정계층이용시설","capacity":20,"operatingHours":"주간 운영(야간·주말 미운영)","isOutdoor":false},{"id":"52180-RS35106","name":"진산경로당","lat":35.53426,"lng":126.82691,"regionCode":"52180","type":"특정계층이용시설","capacity":50,"operatingHours":"주간 운영(야간·주말 미운영)","isOutdoor":false},{"id":"52180-RS38735","name":"중산경로당","lat":35.62241,"lng":126.93193,"regionCode":"52180","type":"특정계층이용시설","capacity":40,"operatingHours":"주간 운영(야간·주말 미운영)","isOutdoor":false},{"id":"52180-RS40933","name":"작산경로당","lat":35.60716,"lng":126.75211,"regionCode":"52180","type":"특정계층이용시설","capacity":8,"operatingHours":"주간 운영(야간·주말 미운영)","isOutdoor":false},{"id":"52180-RS44946","name":"정동마을회관","lat":35.41501,"lng":126.94168,"regionCode":"52180","type":"공공시설","capacity":24,"operatingHours":"주간 운영(야간·주말 미운영)","isOutdoor":false},{"id":"52180-RS45781","name":"만수경로당","lat":35.59196,"lng":126.79307,"regionCode":"52180","type":"특정계층이용시설","capacity":20,"operatingHours":"주간 운영(야간·주말 미운영)","isOutdoor":false},{"id":"52180-RS49414","name":"지선경로당","lat":35.51954,"lng":126.79091,"regionCode":"52180","type":"특정계층이용시설","capacity":30,"operatingHours":"주간 운영(야간·주말 미운영)","isOutdoor":false},{"id":"52180-RS50072","name":"반월경로당","lat":35.56498,"lng":126.80909,"regionCode":"52180","type":"특정계층이용시설","capacity":16,"operatingHours":"주간 운영(야간·주말 미운영)","isOutdoor":false},{"id":"52190-RS02647","name":"신평마을노인시설","lat":35.33952,"lng":127.33581,"regionCode":"52190","type":"특정계층이용시설","capacity":21,"operatingHours":"주간 운영(야간·주말 미운영)","isOutdoor":false},{"id":"52190-RS03750","name":"덕동경로당","lat":35.3648,"lng":127.55871,"regionCode":"52190","type":"특정계층이용시설","capacity":18,"operatingHours":"주간 운영(야간·주말 미운영)","isOutdoor":false},{"id":"52190-RS03833","name":"시영2차A경로당","lat":35.41652,"lng":127.38224,"regionCode":"52190","type":"특정계층이용시설","capacity":21,"operatingHours":"주간 운영(야간·주말 미운영)","isOutdoor":false},{"id":"52190-RS03845","name":"향교4통여성경로당","lat":35.4224,"lng":127.38193,"regionCode":"52190","type":"특정계층이용시설","capacity":21,"operatingHours":"주간 운영(야간·주말 미운영)","isOutdoor":false},{"id":"52190-RS04044","name":"갈음경로당","lat":35.43699,"lng":127.37605,"regionCode":"52190","type":"특정계층이용시설","capacity":18,"operatingHours":"주간 운영(야간·주말 미운영)","isOutdoor":false},{"id":"52190-RS04665","name":"칠승경로당","lat":35.4085,"lng":127.363,"regionCode":"52190","type":"특정계층이용시설","capacity":44,"operatingHours":"주간 운영(야간·주말 미운영)","isOutdoor":false},{"id":"52190-RS04815","name":"한신아파트경로당","lat":35.39445,"lng":127.37594,"regionCode":"52190","type":"특정계층이용시설","capacity":73,"operatingHours":"주간 운영(야간·주말 미운영)","isOutdoor":false},{"id":"52190-RS09074","name":"우성아파트경로당","lat":35.41796,"lng":127.39414,"regionCode":"52190","type":"특정계층이용시설","capacity":16,"operatingHours":"주간 운영(야간·주말 미운영)","isOutdoor":false},{"id":"52190-RS11952","name":"상도마을회관","lat":35.37374,"lng":127.28154,"regionCode":"52190","type":"특정계층이용시설","capacity":20,"operatingHours":"주간 운영(야간·주말 미운영)","isOutdoor":false},{"id":"52190-RS14543","name":"구선동경로당","lat":35.48348,"lng":127.53891,"regionCode":"52190","type":"특정계층이용시설","capacity":11,"operatingHours":"주간 운영(야간·주말 미운영)","isOutdoor":false},{"id":"52190-RS16496","name":"호곡마을노인시설","lat":35.39939,"lng":127.42569,"regionCode":"52190","type":"특정계층이용시설","capacity":23,"operatingHours":"주간 운영(야간·주말 미운영)","isOutdoor":false},{"id":"52190-RS16498","name":"낙동마을회관","lat":35.38288,"lng":127.30129,"regionCode":"52190","type":"특정계층이용시설","capacity":43,"operatingHours":"주간 운영(야간·주말 미운영)","isOutdoor":false},{"id":"52190-RS19310","name":"오촌마을노인시설","lat":35.42173,"lng":127.43311,"regionCode":"52190","type":"특정계층이용시설","capacity":28,"operatingHours":"주간 운영(야간·주말 미운영)","isOutdoor":false},{"id":"52190-RS19311","name":"초동마을노인시설","lat":35.4155,"lng":127.42656,"regionCode":"52190","type":"특정계층이용시설","capacity":32,"operatingHours":"주간 운영(야간·주말 미운영)","isOutdoor":false},{"id":"52190-RS39517","name":"고정마을노인시설","lat":35.35227,"lng":127.39318,"regionCode":"52190","type":"특정계층이용시설","capacity":15,"operatingHours":"주간 운영(야간·주말 미운영)","isOutdoor":false},{"id":"52190-RS41184","name":"덕평마을회관","lat":35.48118,"lng":127.3511,"regionCode":"52190","type":"특정계층이용시설","capacity":15,"operatingHours":"주간 운영(야간·주말 미운영)","isOutdoor":false},{"id":"52190-RS43514","name":"손동마을노인시설","lat":35.33816,"lng":127.31948,"regionCode":"52190","type":"특정계층이용시설","capacity":10,"operatingHours":"주간 운영(야간·주말 미운영)","isOutdoor":false},{"id":"52190-RS44920","name":"남부도통경로당","lat":35.41401,"lng":127.39388,"regionCode":"52190","type":"특정계층이용시설","capacity":16,"operatingHours":"주간 운영(야간·주말 미운영)","isOutdoor":false},{"id":"52190-RS46163","name":"장교마을노인시설","lat":35.45438,"lng":127.50172,"regionCode":"52190","type":"특정계층이용시설","capacity":30,"operatingHours":"주간 운영(야간·주말 미운영)","isOutdoor":false},{"id":"52190-RS51393","name":"대산면사무소","lat":35.43213,"lng":127.32516,"regionCode":"52190","type":"공공시설","capacity":30,"operatingHours":"주간 운영(야간·주말 미운영)","isOutdoor":false},{"id":"52190-RS52102","name":"운봉행정복지센터","lat":35.43978,"lng":127.52889,"regionCode":"52190","type":"공공시설","capacity":20,"operatingHours":"주간 운영(야간·주말 미운영)","isOutdoor":false},{"id":"52190-RS52140","name":"송동면보건지소","lat":35.35497,"lng":127.33708,"regionCode":"52190","type":"공공시설","capacity":71,"operatingHours":"주간 운영(야간·주말 미운영)","isOutdoor":false},{"id":"52190-RS52464","name":"운교(여성)마을노인시설","lat":35.43237,"lng":127.32322,"regionCode":"52190","type":"공공시설","capacity":70,"operatingHours":"주간 운영(야간·주말 미운영)","isOutdoor":false},{"id":"52190-RS52535","name":"대곡(여성)마을노인시설","lat":35.41073,"lng":127.3095,"regionCode":"52190","type":"공공시설","capacity":49,"operatingHours":"주간 운영(야간·주말 미운영)","isOutdoor":false},{"id":"52190-RS52558","name":"서도보건진료소","lat":35.49039,"lng":127.33018,"regionCode":"52190","type":"공공시설","capacity":35,"operatingHours":"주간 운영(야간·주말 미운영)","isOutdoor":false},{"id":"52190-RS52727","name":"대곡마을노인시설","lat":35.4099,"lng":127.31077,"regionCode":"52190","type":"공공시설","capacity":25,"operatingHours":"주간 운영(야간·주말 미운영)","isOutdoor":false},{"id":"52190-RS55258","name":"서촌마을노인시설","lat":35.48948,"lng":127.32829,"regionCode":"52190","type":"공공시설","capacity":26,"operatingHours":"주간 운영(야간·주말 미운영)","isOutdoor":false},{"id":"52190-RS56597","name":"수동마을노인시설","lat":35.47197,"lng":127.32835,"regionCode":"52190","type":"공공시설","capacity":18,"operatingHours":"주간 운영(야간·주말 미운영)","isOutdoor":false},{"id":"52190-RS56598","name":"계동마을노인시설","lat":35.46264,"lng":127.33006,"regionCode":"52190","type":"공공시설","capacity":19,"operatingHours":"주간 운영(야간·주말 미운영)","isOutdoor":false},{"id":"52190-RS56637","name":"덕치보건진료소","lat":35.39753,"lng":127.50501,"regionCode":"52190","type":"공공시설","capacity":21,"operatingHours":"주간 운영(야간·주말 미운영)","isOutdoor":false},{"id":"52210-RS01174","name":"복죽교회","lat":35.80332,"lng":126.84381,"regionCode":"52210","type":"생활밀착민간시설","capacity":10,"operatingHours":"주간 운영(야간·주말 미운영)","isOutdoor":false},{"id":"52210-RS06366","name":"신흥경로당","lat":35.6988,"lng":126.86977,"regionCode":"52210","type":"특정계층이용시설","capacity":23,"operatingHours":"주간 운영(야간·주말 미운영)","isOutdoor":false},{"id":"52210-RS06792","name":"장전경로당","lat":35.70684,"lng":127.00538,"regionCode":"52210","type":"특정계층이용시설","capacity":33,"operatingHours":"주간 운영(야간·주말 미운영)","isOutdoor":false},{"id":"52210-RS06932","name":"구성경로당(기룡)","lat":35.75083,"lng":127.00526,"regionCode":"52210","type":"특정계층이용시설","capacity":10,"operatingHours":"주간 운영(야간·주말 미운영)","isOutdoor":false},{"id":"52210-RS10059","name":"시영아파트노인정","lat":35.80676,"lng":126.89684,"regionCode":"52210","type":"특정계층이용시설","capacity":67,"operatingHours":"주간 운영(야간·주말 미운영)","isOutdoor":false},{"id":"52210-RS10069","name":"대리경로당","lat":35.80763,"lng":126.92855,"regionCode":"52210","type":"특정계층이용시설","capacity":46,"operatingHours":"주간 운영(야간·주말 미운영)","isOutdoor":false},{"id":"52210-RS15561","name":"명천경로당","lat":35.88667,"lng":126.89036,"regionCode":"52210","type":"특정계층이용시설","capacity":31,"operatingHours":"주간 운영(야간·주말 미운영)","isOutdoor":false},{"id":"52210-RS20101","name":"마동경로당","lat":35.68914,"lng":126.91403,"regionCode":"52210","type":"특정계층이용시설","capacity":18,"operatingHours":"주간 운영(야간·주말 미운영)","isOutdoor":false},{"id":"52210-RS21143","name":"원조그룹홈","lat":35.86409,"lng":126.89375,"regionCode":"52210","type":"특정계층이용시설","capacity":10,"operatingHours":"주간 운영(야간·주말 미운영)","isOutdoor":false},{"id":"52210-RS26051","name":"서도경로당","lat":35.76985,"lng":126.93866,"regionCode":"52210","type":"특정계층이용시설","capacity":10,"operatingHours":"주간 운영(야간·주말 미운영)","isOutdoor":false},{"id":"52210-RS27033","name":"진우2차아파트경로당","lat":35.80608,"lng":126.89459,"regionCode":"52210","type":"특정계층이용시설","capacity":30,"operatingHours":"주간 운영(야간·주말 미운영)","isOutdoor":false},{"id":"52210-RS28200","name":"금옥교회","lat":35.78453,"lng":126.9919,"regionCode":"52210","type":"생활밀착민간시설","capacity":20,"operatingHours":"주간 운영(야간·주말 미운영)","isOutdoor":false},{"id":"52210-RS31240","name":"성리경로당","lat":35.76692,"lng":126.91123,"regionCode":"52210","type":"특정계층이용시설","capacity":10,"operatingHours":"주간 운영(야간·주말 미운영)","isOutdoor":false},{"id":"52210-RS31733","name":"신풍현대아파트경로당","lat":35.79253,"lng":126.89986,"regionCode":"52210","type":"특정계층이용시설","capacity":10,"operatingHours":"주간 운영(야간·주말 미운영)","isOutdoor":false},{"id":"52210-RS31742","name":"부영3차아파트노인정","lat":35.79707,"lng":126.90427,"regionCode":"52210","type":"특정계층이용시설","capacity":10,"operatingHours":"주간 운영(야간·주말 미운영)","isOutdoor":false},{"id":"52210-RS33171","name":"묘암마을경로당","lat":35.78387,"lng":126.93811,"regionCode":"52210","type":"특정계층이용시설","capacity":10,"operatingHours":"주간 운영(야간·주말 미운영)","isOutdoor":false},{"id":"52210-RS38351","name":"괴경로당","lat":35.71186,"lng":126.85965,"regionCode":"52210","type":"특정계층이용시설","capacity":25,"operatingHours":"주간 운영(야간·주말 미운영)","isOutdoor":false},{"id":"52210-RS38510","name":"부성경로당","lat":35.75732,"lng":126.81411,"regionCode":"52210","type":"특정계층이용시설","capacity":21,"operatingHours":"주간 운영(야간·주말 미운영)","isOutdoor":false},{"id":"52210-RS55291","name":"성덕진료소","lat":35.81904,"lng":126.79852,"regionCode":"52210","type":"공공시설","capacity":20,"operatingHours":"주간 운영(야간·주말 미운영)","isOutdoor":false},{"id":"52210-RS56298","name":"봉남면행정복지센터","lat":35.75341,"lng":126.96241,"regionCode":"52210","type":"공공시설","capacity":30,"operatingHours":"주간 운영(야간·주말 미운영)","isOutdoor":false},{"id":"52710-RS01578","name":"화월경로당","lat":36.03245,"lng":127.19933,"regionCode":"52710","type":"특정계층이용시설","capacity":54,"operatingHours":"주간 운영(야간·주말 미운영)","isOutdoor":false},{"id":"52710-RS01643","name":"만수동경로당","lat":36.04452,"lng":127.25267,"regionCode":"52710","type":"특정계층이용시설","capacity":24,"operatingHours":"주간 운영(야간·주말 미운영)","isOutdoor":false},{"id":"52710-RS03137","name":"새터경로당","lat":35.95364,"lng":127.17634,"regionCode":"52710","type":"특정계층이용시설","capacity":23,"operatingHours":"주간 운영(야간·주말 미운영)","isOutdoor":false},{"id":"52710-RS03170","name":"봉동여성경로당","lat":35.93716,"lng":127.16672,"regionCode":"52710","type":"특정계층이용시설","capacity":32,"operatingHours":"주간 운영(야간·주말 미운영)","isOutdoor":false},{"id":"52710-RS03172","name":"대복경로당","lat":35.92139,"lng":127.15012,"regionCode":"52710","type":"특정계층이용시설","capacity":40,"operatingHours":"주간 운영(야간·주말 미운영)","isOutdoor":false},{"id":"52710-RS05513","name":"월암경로당","lat":35.97023,"lng":127.17103,"regionCode":"52710","type":"특정계층이용시설","capacity":35,"operatingHours":"주간 운영(야간·주말 미운영)","isOutdoor":false},{"id":"52710-RS06478","name":"평지경로당","lat":36.01984,"lng":127.18596,"regionCode":"52710","type":"특정계층이용시설","capacity":27,"operatingHours":"주간 운영(야간·주말 미운영)","isOutdoor":false},{"id":"52710-RS15848","name":"세병공원2","lat":35.87672,"lng":127.12942,"regionCode":"52710","type":"야외시설","capacity":5,"operatingHours":"주간 운영(야간·주말 미운영)","isOutdoor":false},{"id":"52710-RS18560","name":"용연마을회관","lat":35.95953,"lng":127.30913,"regionCode":"52710","type":"특정계층이용시설","capacity":30,"operatingHours":"주간 운영(야간·주말 미운영)","isOutdoor":false},{"id":"52710-RS20487","name":"후역전경로당","lat":35.90884,"lng":127.06619,"regionCode":"52710","type":"특정계층이용시설","capacity":55,"operatingHours":"주간 운영(야간·주말 미운영)","isOutdoor":false},{"id":"52710-RS20828","name":"하오마을정자","lat":35.89892,"lng":127.13202,"regionCode":"52710","type":"야외시설","capacity":20,"operatingHours":"주간 운영(야간·주말 미운영)","isOutdoor":false},{"id":"52710-RS23187","name":"삼태경로당","lat":35.87754,"lng":127.21545,"regionCode":"52710","type":"특정계층이용시설","capacity":43,"operatingHours":"주간 운영(야간·주말 미운영)","isOutdoor":false},{"id":"52710-RS31270","name":"서봉마을경로당","lat":35.9797,"lng":127.19835,"regionCode":"52710","type":"특정계층이용시설","capacity":55,"operatingHours":"주간 운영(야간·주말 미운영)","isOutdoor":false},{"id":"52710-RS33765","name":"원내월경로당","lat":36.017,"lng":127.13949,"regionCode":"52710","type":"특정계층이용시설","capacity":28,"operatingHours":"주간 운영(야간·주말 미운영)","isOutdoor":false},{"id":"52710-RS35339","name":"신공경로당","lat":36.03237,"lng":127.19645,"regionCode":"52710","type":"특정계층이용시설","capacity":20,"operatingHours":"주간 운영(야간·주말 미운영)","isOutdoor":false},{"id":"52710-RS38429","name":"죽병경로당","lat":36.05258,"lng":127.16979,"regionCode":"52710","type":"특정계층이용시설","capacity":31,"operatingHours":"주간 운영(야간·주말 미운영)","isOutdoor":false},{"id":"52710-RS39019","name":"오산경로당","lat":35.97839,"lng":127.22319,"regionCode":"52710","type":"특정계층이용시설","capacity":50,"operatingHours":"주간 운영(야간·주말 미운영)","isOutdoor":false},{"id":"52710-RS39506","name":"상신경로당","lat":35.90809,"lng":127.12775,"regionCode":"52710","type":"특정계층이용시설","capacity":30,"operatingHours":"주간 운영(야간·주말 미운영)","isOutdoor":false},{"id":"52710-RS40106","name":"거인경로당","lat":35.9394,"lng":127.29492,"regionCode":"52710","type":"특정계층이용시설","capacity":30,"operatingHours":"주간 운영(야간·주말 미운영)","isOutdoor":false},{"id":"52710-RS43361","name":"대향경로당","lat":35.99403,"lng":127.25931,"regionCode":"52710","type":"특정계층이용시설","capacity":30,"operatingHours":"주간 운영(야간·주말 미운영)","isOutdoor":false},{"id":"52710-RS46261","name":"용복경로당","lat":36.04168,"lng":127.18003,"regionCode":"52710","type":"특정계층이용시설","capacity":16,"operatingHours":"주간 운영(야간·주말 미운영)","isOutdoor":false},{"id":"52710-RS46663","name":"소향경로당(신상)","lat":35.98598,"lng":127.25794,"regionCode":"52710","type":"특정계층이용시설","capacity":48,"operatingHours":"주간 운영(야간·주말 미운영)","isOutdoor":false},{"id":"52710-RS46664","name":"교전경로당","lat":35.97312,"lng":127.21348,"regionCode":"52710","type":"특정계층이용시설","capacity":26,"operatingHours":"주간 운영(야간·주말 미운영)","isOutdoor":false},{"id":"52710-RS46762","name":"구하경로당","lat":36.00829,"lng":127.20465,"regionCode":"52710","type":"특정계층이용시설","capacity":24,"operatingHours":"주간 운영(야간·주말 미운영)","isOutdoor":false},{"id":"52710-RS49117","name":"신촌마을경로당","lat":35.89772,"lng":127.18991,"regionCode":"52710","type":"특정계층이용시설","capacity":40,"operatingHours":"주간 운영(야간·주말 미운영)","isOutdoor":false},{"id":"52710-RS56880","name":"비봉우체국","lat":35.99684,"lng":127.13931,"regionCode":"52710","type":"공공시설","capacity":10,"operatingHours":"주간 운영(야간·주말 미운영)","isOutdoor":false},{"id":"52720-RS02895","name":"중리경로당","lat":35.76055,"lng":127.48621,"regionCode":"52720","type":"특정계층이용시설","capacity":16,"operatingHours":"주간 운영(야간·주말 미운영)","isOutdoor":false},{"id":"52720-RS05281","name":"다목적실내구장","lat":35.82269,"lng":127.48719,"regionCode":"52720","type":"특정계층이용시설","capacity":112,"operatingHours":"주간 운영(야간·주말 미운영)","isOutdoor":false},{"id":"52720-RS06202","name":"부연경로당","lat":35.7877,"lng":127.527,"regionCode":"52720","type":"특정계층이용시설","capacity":11,"operatingHours":"주간 운영(야간·주말 미운영)","isOutdoor":false},{"id":"52720-RS15126","name":"은번경로당","lat":35.67786,"lng":127.40838,"regionCode":"52720","type":"특정계층이용시설","capacity":null,"operatingHours":"주간 운영(야간·주말 미운영)","isOutdoor":false},{"id":"52720-RS16266","name":"어은경로당","lat":35.74689,"lng":127.48424,"regionCode":"52720","type":"특정계층이용시설","capacity":20,"operatingHours":"주간 운영(야간·주말 미운영)","isOutdoor":false},{"id":"52720-RS20582","name":"진안농협","lat":35.79434,"lng":127.43301,"regionCode":"52720","type":"생활밀착민간시설","capacity":20,"operatingHours":"주간 운영(야간·주말 미운영)","isOutdoor":false},{"id":"52720-RS20632","name":"대야마을회관","lat":35.83227,"lng":127.56165,"regionCode":"52720","type":"특정계층이용시설","capacity":20,"operatingHours":"주간 운영(야간·주말 미운영)","isOutdoor":false},{"id":"52720-RS21880","name":"지사마을회관","lat":35.86995,"lng":127.54019,"regionCode":"52720","type":"특정계층이용시설","capacity":9,"operatingHours":"주간 운영(야간·주말 미운영)","isOutdoor":false},{"id":"52720-RS26119","name":"미곡경로당","lat":35.85217,"lng":127.34398,"regionCode":"52720","type":"특정계층이용시설","capacity":31,"operatingHours":"주간 운영(야간·주말 미운영)","isOutdoor":false},{"id":"52720-RS26617","name":"달길마을회관","lat":35.76989,"lng":127.29704,"regionCode":"52720","type":"특정계층이용시설","capacity":21,"operatingHours":"주간 운영(야간·주말 미운영)","isOutdoor":false},{"id":"52720-RS33006","name":"금평마을회관","lat":35.97544,"lng":127.43676,"regionCode":"52720","type":"특정계층이용시설","capacity":23,"operatingHours":"주간 운영(야간·주말 미운영)","isOutdoor":false},{"id":"52720-RS34133","name":"강촌마을회관","lat":36.00895,"lng":127.38234,"regionCode":"52720","type":"특정계층이용시설","capacity":21,"operatingHours":"주간 운영(야간·주말 미운영)","isOutdoor":false},{"id":"52720-RS35426","name":"상항경모정","lat":35.87277,"lng":127.42341,"regionCode":"52720","type":"특정계층이용시설","capacity":9,"operatingHours":"주간 운영(야간·주말 미운영)","isOutdoor":false},{"id":"52720-RS38252","name":"계남마을회관","lat":35.71751,"lng":127.37556,"regionCode":"52720","type":"특정계층이용시설","capacity":9,"operatingHours":"주간 운영(야간·주말 미운영)","isOutdoor":false},{"id":"52720-RS41594","name":"대성경로당","lat":35.79027,"lng":127.42234,"regionCode":"52720","type":"특정계층이용시설","capacity":32,"operatingHours":"주간 운영(야간·주말 미운영)","isOutdoor":false},{"id":"52720-RS42041","name":"대곡경로당","lat":35.83224,"lng":127.39097,"regionCode":"52720","type":"특정계층이용시설","capacity":38,"operatingHours":"주간 운영(야간·주말 미운영)","isOutdoor":false},{"id":"52720-RS46635","name":"원동촌마을회관","lat":35.7395,"lng":127.38554,"regionCode":"52720","type":"특정계층이용시설","capacity":9,"operatingHours":"주간 운영(야간·주말 미운영)","isOutdoor":false},{"id":"52720-RS49321","name":"오암마을회관","lat":35.75497,"lng":127.30677,"regionCode":"52720","type":"특정계층이용시설","capacity":23,"operatingHours":"주간 운영(야간·주말 미운영)","isOutdoor":false},{"id":"52720-RS49974","name":"신덕마을회관","lat":35.75923,"lng":127.34382,"regionCode":"52720","type":"특정계층이용시설","capacity":9,"operatingHours":"주간 운영(야간·주말 미운영)","isOutdoor":false},{"id":"52720-RS53660","name":"동향면행정복지센터","lat":35.8382,"lng":127.56765,"regionCode":"52720","type":"공공시설","capacity":9,"operatingHours":"주간 운영(야간·주말 미운영)","isOutdoor":false},{"id":"52720-RS53698","name":"정천우체국","lat":35.87263,"lng":127.42814,"regionCode":"52720","type":"공공시설","capacity":10,"operatingHours":"주간 운영(야간·주말 미운영)","isOutdoor":false},{"id":"52720-RS56117","name":"주민자치센터","lat":35.82297,"lng":127.48712,"regionCode":"52720","type":"공공시설","capacity":9,"operatingHours":"주간 운영(야간·주말 미운영)","isOutdoor":false},{"id":"52730-RS15861","name":"덕곡마을회관","lat":35.86923,"lng":127.70038,"regionCode":"52730","type":"특정계층이용시설","capacity":30,"operatingHours":"주간 운영(야간·주말 미운영)","isOutdoor":false},{"id":"52730-RS19709","name":"대촌경로당","lat":35.91783,"lng":127.67728,"regionCode":"52730","type":"특정계층이용시설","capacity":30,"operatingHours":"주간 운영(야간·주말 미운영)","isOutdoor":false},{"id":"52730-RS21156","name":"상평지리마을회관","lat":36.00933,"lng":127.79019,"regionCode":"52730","type":"특정계층이용시설","capacity":29,"operatingHours":"주간 운영(야간·주말 미운영)","isOutdoor":false},{"id":"52730-RS21342","name":"하가경로당","lat":35.92195,"lng":127.65413,"regionCode":"52730","type":"특정계층이용시설","capacity":40,"operatingHours":"주간 운영(야간·주말 미운영)","isOutdoor":false},{"id":"52730-RS23339","name":"유동마을회관","lat":35.98512,"lng":127.55546,"regionCode":"52730","type":"특정계층이용시설","capacity":25,"operatingHours":"주간 운영(야간·주말 미운영)","isOutdoor":false},{"id":"52730-RS26275","name":"원청경로당","lat":36.01098,"lng":127.75163,"regionCode":"52730","type":"특정계층이용시설","capacity":23,"operatingHours":"주간 운영(야간·주말 미운영)","isOutdoor":false},{"id":"52730-RS30354","name":"용추마을회관","lat":35.84478,"lng":127.6816,"regionCode":"52730","type":"특정계층이용시설","capacity":16,"operatingHours":"주간 운영(야간·주말 미운영)","isOutdoor":false},{"id":"52730-RS35111","name":"신두마을회관","lat":35.9921,"lng":127.79173,"regionCode":"52730","type":"특정계층이용시설","capacity":23,"operatingHours":"주간 운영(야간·주말 미운영)","isOutdoor":false},{"id":"52730-RS35354","name":"도라마을회관","lat":35.91789,"lng":127.56106,"regionCode":"52730","type":"특정계층이용시설","capacity":null,"operatingHours":"주간 운영(야간·주말 미운영)","isOutdoor":false},{"id":"52730-RS47003","name":"적상면이동마을회관","lat":35.96034,"lng":127.60982,"regionCode":"52730","type":"특정계층이용시설","capacity":33,"operatingHours":"주간 운영(야간·주말 미운영)","isOutdoor":false},{"id":"52730-RS48168","name":"도류경로당","lat":35.90392,"lng":127.61735,"regionCode":"52730","type":"특정계층이용시설","capacity":30,"operatingHours":"주간 운영(야간·주말 미운영)","isOutdoor":false},{"id":"52730-RS48843","name":"보안마을회관","lat":35.90921,"lng":127.77409,"regionCode":"52730","type":"특정계층이용시설","capacity":35,"operatingHours":"주간 운영(야간·주말 미운영)","isOutdoor":false},{"id":"52730-RS56673","name":"부남보건지소","lat":35.97374,"lng":127.55934,"regionCode":"52730","type":"공공시설","capacity":20,"operatingHours":"주간 운영(야간·주말 미운영)","isOutdoor":false},{"id":"52740-RS00285","name":"위동경로당","lat":35.74462,"lng":127.58782,"regionCode":"52740","type":"특정계층이용시설","capacity":25,"operatingHours":"주간 운영(야간·주말 미운영)","isOutdoor":false},{"id":"52740-RS01131","name":"남동할머니경로당","lat":35.64411,"lng":127.5179,"regionCode":"52740","type":"특정계층이용시설","capacity":45,"operatingHours":"주간 운영(야간·주말 미운영)","isOutdoor":false},{"id":"52740-RS01498","name":"양삼경로당","lat":35.73341,"lng":127.63476,"regionCode":"52740","type":"특정계층이용시설","capacity":21,"operatingHours":"주간 운영(야간·주말 미운영)","isOutdoor":false},{"id":"52740-RS01501","name":"장계경로당","lat":35.73095,"lng":127.58883,"regionCode":"52740","type":"특정계층이용시설","capacity":45,"operatingHours":"주간 운영(야간·주말 미운영)","isOutdoor":false},{"id":"52740-RS01668","name":"신기경로당","lat":35.73467,"lng":127.59371,"regionCode":"52740","type":"특정계층이용시설","capacity":25,"operatingHours":"주간 운영(야간·주말 미운영)","isOutdoor":false},{"id":"52740-RS06201","name":"삼장할머니경로당","lat":35.72102,"lng":127.52178,"regionCode":"52740","type":"특정계층이용시설","capacity":25,"operatingHours":"주간 운영(야간·주말 미운영)","isOutdoor":false},{"id":"52740-RS07970","name":"견천경로당","lat":35.53814,"lng":127.5478,"regionCode":"52740","type":"특정계층이용시설","capacity":11,"operatingHours":"주간 운영(야간·주말 미운영)","isOutdoor":false},{"id":"52740-RS08843","name":"수척경로당","lat":35.50366,"lng":127.51988,"regionCode":"52740","type":"특정계층이용시설","capacity":42,"operatingHours":"주간 운영(야간·주말 미운영)","isOutdoor":false},{"id":"52740-RS13469","name":"문성할머니","lat":35.78464,"lng":127.62569,"regionCode":"52740","type":"특정계층이용시설","capacity":36,"operatingHours":"주간 운영(야간·주말 미운영)","isOutdoor":false},{"id":"52740-RS13866","name":"골담경로당","lat":35.72356,"lng":127.6078,"regionCode":"52740","type":"특정계층이용시설","capacity":10,"operatingHours":"주간 운영(야간·주말 미운영)","isOutdoor":false},{"id":"52740-RS15967","name":"방화경로당","lat":35.57598,"lng":127.4296,"regionCode":"52740","type":"특정계층이용시설","capacity":31,"operatingHours":"주간 운영(야간·주말 미운영)","isOutdoor":false},{"id":"52740-RS20743","name":"삵다리경로당","lat":35.76947,"lng":127.5995,"regionCode":"52740","type":"특정계층이용시설","capacity":10,"operatingHours":"주간 운영(야간·주말 미운영)","isOutdoor":false},{"id":"52740-RS21694","name":"희평경로당","lat":35.66763,"lng":127.59484,"regionCode":"52740","type":"특정계층이용시설","capacity":10,"operatingHours":"주간 운영(야간·주말 미운영)","isOutdoor":false},{"id":"52740-RS25117","name":"안양할머니경로당","lat":35.62014,"lng":127.49031,"regionCode":"52740","type":"특정계층이용시설","capacity":38,"operatingHours":"주간 운영(야간·주말 미운영)","isOutdoor":false},{"id":"52740-RS25511","name":"구상마을노인시설","lat":35.52987,"lng":127.59006,"regionCode":"52740","type":"특정계층이용시설","capacity":21,"operatingHours":"주간 운영(야간·주말 미운영)","isOutdoor":false},{"id":"52740-RS26798","name":"월평경로당","lat":35.59947,"lng":127.41978,"regionCode":"52740","type":"특정계층이용시설","capacity":17,"operatingHours":"주간 운영(야간·주말 미운영)","isOutdoor":false},{"id":"52740-RS26800","name":"양신경로당","lat":35.57254,"lng":127.41933,"regionCode":"52740","type":"특정계층이용시설","capacity":18,"operatingHours":"주간 운영(야간·주말 미운영)","isOutdoor":false},{"id":"52740-RS31578","name":"매산마을회관","lat":35.48734,"lng":127.59872,"regionCode":"52740","type":"특정계층이용시설","capacity":24,"operatingHours":"주간 운영(야간·주말 미운영)","isOutdoor":false},{"id":"52740-RS49061","name":"양신경로당","lat":35.68978,"lng":127.56266,"regionCode":"52740","type":"특정계층이용시설","capacity":15,"operatingHours":"주간 운영(야간·주말 미운영)","isOutdoor":false},{"id":"52740-RS49963","name":"어머니경로당","lat":35.45899,"lng":127.60425,"regionCode":"52740","type":"특정계층이용시설","capacity":15,"operatingHours":"주간+야간·주말 연장운영","isOutdoor":false},{"id":"52740-RS51509","name":"내건회관","lat":35.4955,"lng":127.62025,"regionCode":"52740","type":"공공시설","capacity":40,"operatingHours":"주간 운영(야간·주말 미운영)","isOutdoor":false},{"id":"52750-RS01539","name":"성전경로당","lat":35.58765,"lng":127.20513,"regionCode":"52750","type":"특정계층이용시설","capacity":11,"operatingHours":"주간 운영(야간·주말 미운영)","isOutdoor":false},{"id":"52750-RS01541","name":"하중산경로당","lat":35.5829,"lng":127.21972,"regionCode":"52750","type":"특정계층이용시설","capacity":10,"operatingHours":"주간 운영(야간·주말 미운영)","isOutdoor":false},{"id":"52750-RS01691","name":"용운경로당","lat":35.62733,"lng":127.14251,"regionCode":"52750","type":"특정계층이용시설","capacity":20,"operatingHours":"주간 운영(야간·주말 미운영)","isOutdoor":false},{"id":"52750-RS02973","name":"운수경로당","lat":35.61292,"lng":127.28155,"regionCode":"52750","type":"특정계층이용시설","capacity":16,"operatingHours":"주간 운영(야간·주말 미운영)","isOutdoor":false},{"id":"52750-RS05185","name":"명진어머니경로당","lat":35.67686,"lng":127.26898,"regionCode":"52750","type":"특정계층이용시설","capacity":20,"operatingHours":"주간 운영(야간·주말 미운영)","isOutdoor":false},{"id":"52750-RS07771","name":"석두경로당","lat":35.56468,"lng":127.22197,"regionCode":"52750","type":"특정계층이용시설","capacity":29,"operatingHours":"주간 운영(야간·주말 미운영)","isOutdoor":false},{"id":"52750-RS10216","name":"동촌경로당","lat":35.59445,"lng":127.39813,"regionCode":"52750","type":"특정계층이용시설","capacity":15,"operatingHours":"주간 운영(야간·주말 미운영)","isOutdoor":false},{"id":"52750-RS13294","name":"학석죽원경로당","lat":35.5552,"lng":127.12877,"regionCode":"52750","type":"특정계층이용시설","capacity":14,"operatingHours":"주간 운영(야간·주말 미운영)","isOutdoor":false},{"id":"52750-RS13428","name":"구고경로당","lat":35.57096,"lng":127.20064,"regionCode":"52750","type":"특정계층이용시설","capacity":27,"operatingHours":"주간 운영(야간·주말 미운영)","isOutdoor":false},{"id":"52750-RS14166","name":"장평경로당","lat":35.71065,"lng":127.26917,"regionCode":"52750","type":"특정계층이용시설","capacity":30,"operatingHours":"주간 운영(야간·주말 미운영)","isOutdoor":false},{"id":"52750-RS16245","name":"덕전경로당","lat":35.63315,"lng":127.21962,"regionCode":"52750","type":"특정계층이용시설","capacity":19,"operatingHours":"주간 운영(야간·주말 미운영)","isOutdoor":false},{"id":"52750-RS20427","name":"구암경로당","lat":35.66369,"lng":127.36114,"regionCode":"52750","type":"특정계층이용시설","capacity":25,"operatingHours":"주간 운영(야간·주말 미운영)","isOutdoor":false},{"id":"52750-RS23743","name":"양지경로당","lat":35.51836,"lng":127.17995,"regionCode":"52750","type":"특정계층이용시설","capacity":19,"operatingHours":"주간 운영(야간·주말 미운영)","isOutdoor":false},{"id":"52750-RS24822","name":"방현마을회관","lat":35.55377,"lng":127.14978,"regionCode":"52750","type":"특정계층이용시설","capacity":22,"operatingHours":"주간 운영(야간·주말 미운영)","isOutdoor":false},{"id":"52750-RS25547","name":"오정경로당","lat":35.6051,"lng":127.26903,"regionCode":"52750","type":"특정계층이용시설","capacity":31,"operatingHours":"주간 운영(야간·주말 미운영)","isOutdoor":false},{"id":"52750-RS25861","name":"수정모경로당","lat":35.61883,"lng":127.28445,"regionCode":"52750","type":"특정계층이용시설","capacity":20,"operatingHours":"주간 운영(야간·주말 미운영)","isOutdoor":false},{"id":"52750-RS26911","name":"당가경로당","lat":35.561,"lng":127.36544,"regionCode":"52750","type":"특정계층이용시설","capacity":18,"operatingHours":"주간 운영(야간·주말 미운영)","isOutdoor":false},{"id":"52750-RS30597","name":"주공모경로당(105동)","lat":35.61568,"lng":127.28483,"regionCode":"52750","type":"특정계층이용시설","capacity":30,"operatingHours":"주간 운영(야간·주말 미운영)","isOutdoor":false},{"id":"52750-RS31545","name":"남금암경로당","lat":35.53666,"lng":127.33344,"regionCode":"52750","type":"특정계층이용시설","capacity":26,"operatingHours":"주간 운영(야간·주말 미운영)","isOutdoor":false},{"id":"52750-RS33752","name":"성수경로당","lat":35.64099,"lng":127.38308,"regionCode":"52750","type":"특정계층이용시설","capacity":22,"operatingHours":"주간 운영(야간·주말 미운영)","isOutdoor":false},{"id":"52750-RS41247","name":"하촌경로당","lat":35.68514,"lng":127.23008,"regionCode":"52750","type":"특정계층이용시설","capacity":30,"operatingHours":"주간 운영(야간·주말 미운영)","isOutdoor":false},{"id":"52750-RS41779","name":"세심경로당","lat":35.49232,"lng":127.24549,"regionCode":"52750","type":"특정계층이용시설","capacity":45,"operatingHours":"주간 운영(야간·주말 미운영)","isOutdoor":false},{"id":"52750-RS41848","name":"율치경로당","lat":35.66534,"lng":127.18609,"regionCode":"52750","type":"특정계층이용시설","capacity":30,"operatingHours":"주간 운영(야간·주말 미운영)","isOutdoor":false},{"id":"52750-RS56273","name":"학당마을회관","lat":35.62928,"lng":127.33325,"regionCode":"52750","type":"공공시설","capacity":16,"operatingHours":"주간 운영(야간·주말 미운영)","isOutdoor":false},{"id":"52770-RS06772","name":"신촌경로당","lat":35.48784,"lng":127.15241,"regionCode":"52770","type":"특정계층이용시설","capacity":20,"operatingHours":"주간 운영(야간·주말 미운영)","isOutdoor":false},{"id":"52770-RS09315","name":"송내마을노인시설","lat":35.36726,"lng":127.23426,"regionCode":"52770","type":"특정계층이용시설","capacity":30,"operatingHours":"주간 운영(야간·주말 미운영)","isOutdoor":false},{"id":"52770-RS17038","name":"평촌여성노인시설","lat":35.38771,"lng":127.24207,"regionCode":"52770","type":"특정계층이용시설","capacity":30,"operatingHours":"주간 운영(야간·주말 미운영)","isOutdoor":false},{"id":"52770-RS23505","name":"강석마을노인시설","lat":35.36271,"lng":127.22991,"regionCode":"52770","type":"특정계층이용시설","capacity":30,"operatingHours":"주간 운영(야간·주말 미운영)","isOutdoor":false},{"id":"52770-RS26039","name":"매우할머니경로당","lat":35.33889,"lng":127.08422,"regionCode":"52770","type":"특정계층이용시설","capacity":17,"operatingHours":"주간 운영(야간·주말 미운영)","isOutdoor":false},{"id":"52770-RS26058","name":"망월경로당","lat":35.52027,"lng":127.1503,"regionCode":"52770","type":"특정계층이용시설","capacity":30,"operatingHours":"주간 운영(야간·주말 미운영)","isOutdoor":false},{"id":"52770-RS26144","name":"구담경로당","lat":35.47534,"lng":127.17506,"regionCode":"52770","type":"특정계층이용시설","capacity":21,"operatingHours":"주간 운영(야간·주말 미운영)","isOutdoor":false},{"id":"52770-RS36422","name":"섬안야외쉼터","lat":35.48812,"lng":127.14499,"regionCode":"52770","type":"야외시설","capacity":30,"operatingHours":"주간 운영(야간·주말 미운영)","isOutdoor":false},{"id":"52770-RS36775","name":"하대치마을노인시설","lat":35.3716,"lng":127.2252,"regionCode":"52770","type":"특정계층이용시설","capacity":30,"operatingHours":"주간 운영(야간·주말 미운영)","isOutdoor":false},{"id":"52770-RS43822","name":"장동경로당(회진)","lat":35.52392,"lng":127.14861,"regionCode":"52770","type":"특정계층이용시설","capacity":27,"operatingHours":"주간 운영(야간·주말 미운영)","isOutdoor":false},{"id":"52770-RS51734","name":"귀주마을회관","lat":35.44461,"lng":127.21094,"regionCode":"52770","type":"공공시설","capacity":17,"operatingHours":"주간 운영(야간·주말 미운영)","isOutdoor":false},{"id":"52770-RS51754","name":"고례마을회관","lat":35.35693,"lng":127.07514,"regionCode":"52770","type":"공공시설","capacity":23,"operatingHours":"주간 운영(야간·주말 미운영)","isOutdoor":false},{"id":"52770-RS51823","name":"순창읍사무소","lat":35.3769,"lng":127.14701,"regionCode":"52770","type":"공공시설","capacity":60,"operatingHours":"주간 운영(야간·주말 미운영)","isOutdoor":false},{"id":"52770-RS52366","name":"대강면행정복지센터","lat":35.34734,"lng":127.22774,"regionCode":"52770","type":"공공시설","capacity":15,"operatingHours":"주간 운영(야간·주말 미운영)","isOutdoor":false},{"id":"52770-RS53314","name":"갑동마을회관","lat":35.4136,"lng":127.15334,"regionCode":"52770","type":"공공시설","capacity":21,"operatingHours":"주간 운영(야간·주말 미운영)","isOutdoor":false},{"id":"52770-RS54346","name":"적성면사무소","lat":35.39752,"lng":127.20859,"regionCode":"52770","type":"공공시설","capacity":50,"operatingHours":"주간 운영(야간·주말 미운영)","isOutdoor":false},{"id":"52770-RS54594","name":"소촌마을회관","lat":35.31139,"lng":127.11722,"regionCode":"52770","type":"공공시설","capacity":23,"operatingHours":"주간 운영(야간·주말 미운영)","isOutdoor":false},{"id":"52770-RS54916","name":"자양마을회관","lat":35.42951,"lng":127.07293,"regionCode":"52770","type":"공공시설","capacity":25,"operatingHours":"주간 운영(야간·주말 미운영)","isOutdoor":false},{"id":"52770-RS56501","name":"산막실마을회관","lat":35.54728,"lng":127.11706,"regionCode":"52770","type":"공공시설","capacity":20,"operatingHours":"주간 운영(야간·주말 미운영)","isOutdoor":false},{"id":"52770-RS56724","name":"하죽마을회관","lat":35.34376,"lng":127.12896,"regionCode":"52770","type":"공공시설","capacity":25,"operatingHours":"주간 운영(야간·주말 미운영)","isOutdoor":false},{"id":"52790-RS06317","name":"사포경로당","lat":35.54682,"lng":126.67802,"regionCode":"52790","type":"특정계층이용시설","capacity":17,"operatingHours":"주간 운영(야간·주말 미운영)","isOutdoor":false},{"id":"52790-RS06404","name":"도천경로당","lat":35.51383,"lng":126.54406,"regionCode":"52790","type":"특정계층이용시설","capacity":16,"operatingHours":"주간 운영(야간·주말 미운영)","isOutdoor":false},{"id":"52790-RS06506","name":"하연경로당","lat":35.55684,"lng":126.68268,"regionCode":"52790","type":"특정계층이용시설","capacity":21,"operatingHours":"주간 운영(야간·주말 미운영)","isOutdoor":false},{"id":"52790-RS13370","name":"서문밖경로당","lat":35.52344,"lng":126.69639,"regionCode":"52790","type":"특정계층이용시설","capacity":12,"operatingHours":"주간 운영(야간·주말 미운영)","isOutdoor":false},{"id":"52790-RS14126","name":"사등경로당","lat":35.53408,"lng":126.55606,"regionCode":"52790","type":"특정계층이용시설","capacity":59,"operatingHours":"주간 운영(야간·주말 미운영)","isOutdoor":false},{"id":"52790-RS15655","name":"신덕산경로당","lat":35.42986,"lng":126.6932,"regionCode":"52790","type":"특정계층이용시설","capacity":20,"operatingHours":"주간 운영(야간·주말 미운영)","isOutdoor":false},{"id":"52790-RS16094","name":"봉양경로당","lat":35.51245,"lng":126.7612,"regionCode":"52790","type":"특정계층이용시설","capacity":30,"operatingHours":"주간 운영(야간·주말 미운영)","isOutdoor":false},{"id":"52790-RS16323","name":"평월경로당","lat":35.48129,"lng":126.69824,"regionCode":"52790","type":"특정계층이용시설","capacity":41,"operatingHours":"주간 운영(야간·주말 미운영)","isOutdoor":false},{"id":"52790-RS16504","name":"대장경로당","lat":35.3378,"lng":126.53799,"regionCode":"52790","type":"특정계층이용시설","capacity":32,"operatingHours":"주간 운영(야간·주말 미운영)","isOutdoor":false},{"id":"52790-RS16620","name":"용기경로당","lat":35.53839,"lng":126.58539,"regionCode":"52790","type":"특정계층이용시설","capacity":36,"operatingHours":"주간 운영(야간·주말 미운영)","isOutdoor":false},{"id":"52790-RS18036","name":"평촌경로당","lat":35.40533,"lng":126.68276,"regionCode":"52790","type":"특정계층이용시설","capacity":20,"operatingHours":"주간 운영(야간·주말 미운영)","isOutdoor":false},{"id":"52790-RS18499","name":"조산경로당","lat":35.3837,"lng":126.69593,"regionCode":"52790","type":"특정계층이용시설","capacity":8,"operatingHours":"주간 운영(야간·주말 미운영)","isOutdoor":false},{"id":"52790-RS18718","name":"어림경로당","lat":35.37726,"lng":126.65514,"regionCode":"52790","type":"특정계층이용시설","capacity":28,"operatingHours":"주간 운영(야간·주말 미운영)","isOutdoor":false},{"id":"52790-RS19007","name":"호산경로당","lat":35.4151,"lng":126.70512,"regionCode":"52790","type":"특정계층이용시설","capacity":13,"operatingHours":"주간 운영(야간·주말 미운영)","isOutdoor":false},{"id":"52790-RS19015","name":"매산경로당","lat":35.4433,"lng":126.65065,"regionCode":"52790","type":"특정계층이용시설","capacity":12,"operatingHours":"주간 운영(야간·주말 미운영)","isOutdoor":false},{"id":"52790-RS19050","name":"감역경로당","lat":35.57424,"lng":126.68208,"regionCode":"52790","type":"특정계층이용시설","capacity":17,"operatingHours":"주간+야간·주말 연장운영","isOutdoor":false},{"id":"52790-RS19389","name":"용산경로당","lat":35.38831,"lng":126.51881,"regionCode":"52790","type":"특정계층이용시설","capacity":16,"operatingHours":"주간 운영(야간·주말 미운영)","isOutdoor":false},{"id":"52790-RS19553","name":"청룡경로당","lat":35.33594,"lng":126.54855,"regionCode":"52790","type":"특정계층이용시설","capacity":20,"operatingHours":"주간 운영(야간·주말 미운영)","isOutdoor":false},{"id":"52790-RS20326","name":"화산경로당","lat":35.51478,"lng":126.56296,"regionCode":"52790","type":"특정계층이용시설","capacity":30,"operatingHours":"주간 운영(야간·주말 미운영)","isOutdoor":false},{"id":"52790-RS21586","name":"호동경로당","lat":35.40558,"lng":126.62507,"regionCode":"52790","type":"특정계층이용시설","capacity":28,"operatingHours":"주간 운영(야간·주말 미운영)","isOutdoor":false},{"id":"52790-RS23023","name":"한정경로당","lat":35.53215,"lng":126.73113,"regionCode":"52790","type":"특정계층이용시설","capacity":14,"operatingHours":"주간 운영(야간·주말 미운영)","isOutdoor":false},{"id":"52790-RS23107","name":"월봉경로당","lat":35.5298,"lng":126.72392,"regionCode":"52790","type":"특정계층이용시설","capacity":14,"operatingHours":"주간 운영(야간·주말 미운영)","isOutdoor":false},{"id":"52790-RS25061","name":"정동경로당","lat":35.52465,"lng":126.52387,"regionCode":"52790","type":"특정계층이용시설","capacity":40,"operatingHours":"주간 운영(야간·주말 미운영)","isOutdoor":false},{"id":"52790-RS25572","name":"용암경로당","lat":35.36624,"lng":126.64541,"regionCode":"52790","type":"특정계층이용시설","capacity":10,"operatingHours":"주간 운영(야간·주말 미운영)","isOutdoor":false},{"id":"52790-RS25914","name":"가평경로당","lat":35.47782,"lng":126.73893,"regionCode":"52790","type":"특정계층이용시설","capacity":58,"operatingHours":"주간 운영(야간·주말 미운영)","isOutdoor":false},{"id":"52790-RS26377","name":"덕흥경로당","lat":35.42506,"lng":126.56639,"regionCode":"52790","type":"특정계층이용시설","capacity":18,"operatingHours":"주간 운영(야간·주말 미운영)","isOutdoor":false},{"id":"52790-RS28580","name":"현대(백석)경로당","lat":35.44224,"lng":126.6934,"regionCode":"52790","type":"특정계층이용시설","capacity":61,"operatingHours":"주간 운영(야간·주말 미운영)","isOutdoor":false},{"id":"52790-RS32964","name":"약산경로당","lat":35.3126,"lng":126.56828,"regionCode":"52790","type":"특정계층이용시설","capacity":22,"operatingHours":"주간 운영(야간·주말 미운영)","isOutdoor":false},{"id":"52790-RS33079","name":"수원경로당","lat":35.35898,"lng":126.53501,"regionCode":"52790","type":"특정계층이용시설","capacity":19,"operatingHours":"주간 운영(야간·주말 미운영)","isOutdoor":false},{"id":"52790-RS34108","name":"신대경로당","lat":35.39918,"lng":126.53077,"regionCode":"52790","type":"특정계층이용시설","capacity":19,"operatingHours":"주간 운영(야간·주말 미운영)","isOutdoor":false},{"id":"52790-RS34145","name":"원봉양경로당","lat":35.51435,"lng":126.76192,"regionCode":"52790","type":"특정계층이용시설","capacity":30,"operatingHours":"주간 운영(야간·주말 미운영)","isOutdoor":false},{"id":"52790-RS34344","name":"상라경로당","lat":35.45182,"lng":126.5,"regionCode":"52790","type":"특정계층이용시설","capacity":37,"operatingHours":"주간 운영(야간·주말 미운영)","isOutdoor":false},{"id":"52790-RS35170","name":"송이경로당","lat":35.50984,"lng":126.71586,"regionCode":"52790","type":"특정계층이용시설","capacity":22,"operatingHours":"주간 운영(야간·주말 미운영)","isOutdoor":false},{"id":"52790-RS35171","name":"송내경로당","lat":35.55558,"lng":126.70447,"regionCode":"52790","type":"특정계층이용시설","capacity":14,"operatingHours":"주간 운영(야간·주말 미운영)","isOutdoor":false},{"id":"52790-RS35364","name":"시기여자경로당","lat":35.53758,"lng":126.74257,"regionCode":"52790","type":"특정계층이용시설","capacity":15,"operatingHours":"주간 운영(야간·주말 미운영)","isOutdoor":false},{"id":"52790-RS37113","name":"미동경로당","lat":35.36605,"lng":126.59868,"regionCode":"52790","type":"특정계층이용시설","capacity":33,"operatingHours":"주간 운영(야간·주말 미운영)","isOutdoor":false},{"id":"52790-RS38956","name":"신월경로당","lat":35.38971,"lng":126.58968,"regionCode":"52790","type":"특정계층이용시설","capacity":35,"operatingHours":"주간 운영(야간·주말 미운영)","isOutdoor":false},{"id":"52790-RS39029","name":"화평여자경로당","lat":35.43465,"lng":126.69437,"regionCode":"52790","type":"특정계층이용시설","capacity":30,"operatingHours":"주간 운영(야간·주말 미운영)","isOutdoor":false},{"id":"52790-RS43957","name":"노성사","lat":35.45749,"lng":126.5419,"regionCode":"52790","type":"특정계층이용시설","capacity":102,"operatingHours":"주간 운영(야간·주말 미운영)","isOutdoor":false},{"id":"52790-RS43959","name":"신흥경로당","lat":35.45515,"lng":126.55899,"regionCode":"52790","type":"특정계층이용시설","capacity":35,"operatingHours":"주간 운영(야간·주말 미운영)","isOutdoor":false},{"id":"52790-RS48540","name":"선동경로당","lat":35.37108,"lng":126.55124,"regionCode":"52790","type":"특정계층이용시설","capacity":18,"operatingHours":"주간 운영(야간·주말 미운영)","isOutdoor":false},{"id":"52790-RS49792","name":"봉덕경로당","lat":35.43655,"lng":126.64682,"regionCode":"52790","type":"특정계층이용시설","capacity":31,"operatingHours":"주간 운영(야간·주말 미운영)","isOutdoor":false},{"id":"52790-RS49855","name":"하연주경로당","lat":35.46064,"lng":126.54085,"regionCode":"52790","type":"특정계층이용시설","capacity":56,"operatingHours":"주간 운영(야간·주말 미운영)","isOutdoor":false},{"id":"52790-RS50262","name":"고성경로당","lat":35.44845,"lng":126.55423,"regionCode":"52790","type":"특정계층이용시설","capacity":23,"operatingHours":"주간 운영(야간·주말 미운영)","isOutdoor":false},{"id":"52790-RS53006","name":"아산면보건지소","lat":35.44038,"lng":126.63232,"regionCode":"52790","type":"공공시설","capacity":30,"operatingHours":"주간 운영(야간·주말 미운영)","isOutdoor":false},{"id":"52790-RS54701","name":"흥덕면사무소","lat":35.51777,"lng":126.70365,"regionCode":"52790","type":"공공시설","capacity":30,"operatingHours":"주간 운영(야간·주말 미운영)","isOutdoor":false},{"id":"52790-RS54702","name":"성송면사무소","lat":35.36456,"lng":126.6466,"regionCode":"52790","type":"공공시설","capacity":30,"operatingHours":"주간 운영(야간·주말 미운영)","isOutdoor":false},{"id":"52790-RS55276","name":"흥덕면보건지소","lat":35.51922,"lng":126.69995,"regionCode":"52790","type":"공공시설","capacity":30,"operatingHours":"주간 운영(야간·주말 미운영)","isOutdoor":false},{"id":"52790-RS56076","name":"신림면보건지소","lat":35.4891,"lng":126.71404,"regionCode":"52790","type":"공공시설","capacity":30,"operatingHours":"주간 운영(야간·주말 미운영)","isOutdoor":false},{"id":"52790-RS58068","name":"후동경로당","lat":35.55036,"lng":126.67824,"regionCode":"52790","type":"특정계층이용시설","capacity":15,"operatingHours":"주간 운영(야간·주말 미운영)","isOutdoor":false},{"id":"52800-RS00224","name":"진동경로당","lat":35.60418,"lng":126.61592,"regionCode":"52800","type":"특정계층이용시설","capacity":35,"operatingHours":"주간+야간·주말 연장운영","isOutdoor":false},{"id":"52800-RS00836","name":"제내경로당","lat":35.6508,"lng":126.69923,"regionCode":"52800","type":"특정계층이용시설","capacity":23,"operatingHours":"주간+야간·주말 연장운영","isOutdoor":false},{"id":"52800-RS00948","name":"호우경로당","lat":35.73043,"lng":126.73203,"regionCode":"52800","type":"특정계층이용시설","capacity":62,"operatingHours":"주간+야간·주말 연장운영","isOutdoor":false},{"id":"52800-RS09024","name":"운산경로당","lat":35.64746,"lng":126.53459,"regionCode":"52800","type":"특정계층이용시설","capacity":14,"operatingHours":"주간+야간·주말 연장운영","isOutdoor":false},{"id":"52800-RS10168","name":"화봉경로당","lat":35.63941,"lng":126.71973,"regionCode":"52800","type":"특정계층이용시설","capacity":17,"operatingHours":"주간+야간·주말 연장운영","isOutdoor":false},{"id":"52800-RS10213","name":"장원경로당","lat":35.7249,"lng":126.61021,"regionCode":"52800","type":"특정계층이용시설","capacity":16,"operatingHours":"주간+야간·주말 연장운영","isOutdoor":false},{"id":"52800-RS10236","name":"갈촌경로당","lat":35.66122,"lng":126.7084,"regionCode":"52800","type":"특정계층이용시설","capacity":25,"operatingHours":"주간+야간·주말 연장운영","isOutdoor":false},{"id":"52800-RS10804","name":"서당경로당","lat":35.72031,"lng":126.64828,"regionCode":"52800","type":"특정계층이용시설","capacity":16,"operatingHours":"주간+야간·주말 연장운영","isOutdoor":false},{"id":"52800-RS11109","name":"안성1구경로당","lat":35.78062,"lng":126.74416,"regionCode":"52800","type":"특정계층이용시설","capacity":35,"operatingHours":"주간+야간·주말 연장운영","isOutdoor":false},{"id":"52800-RS11399","name":"화상경로당","lat":35.76236,"lng":126.70281,"regionCode":"52800","type":"특정계층이용시설","capacity":15,"operatingHours":"주간+야간·주말 연장운영","isOutdoor":false},{"id":"52800-RS14751","name":"대광경로당","lat":35.69504,"lng":126.58915,"regionCode":"52800","type":"특정계층이용시설","capacity":10,"operatingHours":"주간+야간·주말 연장운영","isOutdoor":false},{"id":"52800-RS14806","name":"마전경로당","lat":35.71436,"lng":126.64247,"regionCode":"52800","type":"특정계층이용시설","capacity":17,"operatingHours":"주간+야간·주말 연장운영","isOutdoor":false},{"id":"52800-RS15716","name":"회춘경로당","lat":35.70101,"lng":126.71384,"regionCode":"52800","type":"특정계층이용시설","capacity":29,"operatingHours":"주간+야간·주말 연장운영","isOutdoor":false},{"id":"52800-RS20261","name":"청운경로당","lat":35.74823,"lng":126.77173,"regionCode":"52800","type":"특정계층이용시설","capacity":25,"operatingHours":"주간+야간·주말 연장운영","isOutdoor":false},{"id":"52800-RS20307","name":"신성경로당","lat":35.71693,"lng":126.77673,"regionCode":"52800","type":"특정계층이용시설","capacity":20,"operatingHours":"주간+야간·주말 연장운영","isOutdoor":false},{"id":"52800-RS20539","name":"농원경로당","lat":35.66595,"lng":126.7059,"regionCode":"52800","type":"특정계층이용시설","capacity":23,"operatingHours":"주간+야간·주말 연장운영","isOutdoor":false},{"id":"52800-RS21275","name":"송학당경로당","lat":35.72195,"lng":126.73804,"regionCode":"52800","type":"특정계층이용시설","capacity":20,"operatingHours":"주간+야간·주말 연장운영","isOutdoor":false},{"id":"52800-RS21702","name":"계동경로당","lat":35.70726,"lng":126.80103,"regionCode":"52800","type":"특정계층이용시설","capacity":12,"operatingHours":"주간+야간·주말 연장운영","isOutdoor":false},{"id":"52800-RS21814","name":"부안경로당","lat":35.72678,"lng":126.73577,"regionCode":"52800","type":"특정계층이용시설","capacity":24,"operatingHours":"주간+야간·주말 연장운영","isOutdoor":false},{"id":"52800-RS26362","name":"방목경로당","lat":35.76505,"lng":126.79108,"regionCode":"52800","type":"특정계층이용시설","capacity":16,"operatingHours":"주간+야간 운영(주말 미운영)","isOutdoor":false},{"id":"52800-RS28429","name":"계화1경로당","lat":35.78997,"lng":126.64127,"regionCode":"52800","type":"특정계층이용시설","capacity":33,"operatingHours":"주간+야간·주말 연장운영","isOutdoor":false},{"id":"52800-RS30202","name":"망산경로당","lat":35.69717,"lng":126.78239,"regionCode":"52800","type":"특정계층이용시설","capacity":27,"operatingHours":"주간+야간·주말 연장운영","isOutdoor":false},{"id":"52800-RS30972","name":"원장동경로당","lat":35.59385,"lng":126.68515,"regionCode":"52800","type":"특정계층이용시설","capacity":20,"operatingHours":"주간+야간·주말 연장운영","isOutdoor":false},{"id":"52800-RS33381","name":"용출경로당","lat":35.70481,"lng":126.80649,"regionCode":"52800","type":"특정계층이용시설","capacity":20,"operatingHours":"주간+야간·주말 연장운영","isOutdoor":false},{"id":"52800-RS34948","name":"신용경로당","lat":35.62663,"lng":126.74745,"regionCode":"52800","type":"특정계층이용시설","capacity":15,"operatingHours":"주간 운영(야간·주말 미운영)","isOutdoor":false},{"id":"52800-RS39729","name":"대흥경로당","lat":35.76338,"lng":126.69278,"regionCode":"52800","type":"특정계층이용시설","capacity":20,"operatingHours":"주간+야간·주말 연장운영","isOutdoor":false},{"id":"52800-RS43666","name":"옥창경로당","lat":35.8349,"lng":126.73459,"regionCode":"52800","type":"특정계층이용시설","capacity":20,"operatingHours":"주간 운영(야간·주말 미운영)","isOutdoor":false},{"id":"52800-RS44073","name":"남하그룹홈","lat":35.84682,"lng":126.7239,"regionCode":"52800","type":"특정계층이용시설","capacity":10,"operatingHours":"주간 운영(야간·주말 미운영)","isOutdoor":false},{"id":"52800-RS44547","name":"부녀경로당","lat":35.58889,"lng":126.68026,"regionCode":"52800","type":"특정계층이용시설","capacity":24,"operatingHours":"주간+야간·주말 연장운영","isOutdoor":false},{"id":"52800-RS48880","name":"상입석경로당","lat":35.62548,"lng":126.68129,"regionCode":"52800","type":"특정계층이용시설","capacity":38,"operatingHours":"주간+야간·주말 연장운영","isOutdoor":false},{"id":"52800-RS49985","name":"서중경로당","lat":35.72947,"lng":126.73196,"regionCode":"52800","type":"특정계층이용시설","capacity":20,"operatingHours":"주간+야간·주말 연장운영","isOutdoor":false},{"id":"52800-RS57619","name":"운산경로당","lat":35.77758,"lng":126.74938,"regionCode":"52800","type":"특정계층이용시설","capacity":20,"operatingHours":"주간+야간·주말 연장운영","isOutdoor":false},{"id":"52800-RS58036","name":"신영경로당","lat":35.633,"lng":126.7572,"regionCode":"52800","type":"특정계층이용시설","capacity":56,"operatingHours":"주간 운영(야간·주말 미운영)","isOutdoor":false},{"id":"11110-RS16970","name":"공덕자이(아)제2경로당","lat":37.5546,"lng":126.95875,"regionCode":"11110","type":"특정계층이용시설","capacity":16,"operatingHours":"주간 운영(야간·주말 미운영)","isOutdoor":false},{"id":"11110-RS24854","name":"천연뜨란채A경로당","lat":37.56745,"lng":126.95817,"regionCode":"11110","type":"특정계층이용시설","capacity":13,"operatingHours":"주간 운영(야간·주말 미운영)","isOutdoor":false},{"id":"11110-RS53618","name":"부암동주민센터","lat":37.59244,"lng":126.96408,"regionCode":"11110","type":"공공시설","capacity":50,"operatingHours":"주간+주말 운영(야간 미운영)","isOutdoor":false},{"id":"11110-RS54495","name":"종로장애인복지관","lat":37.58425,"lng":126.96973,"regionCode":"11110","type":"공공시설","capacity":100,"operatingHours":"주간 운영(야간·주말 미운영)","isOutdoor":false},{"id":"11110-RS56408","name":"손기정문화체육센터","lat":37.55592,"lng":126.96456,"regionCode":"11110","type":"공공시설","capacity":73,"operatingHours":"주간 운영(야간·주말 미운영)","isOutdoor":false},{"id":"11140-RS00131","name":"종로노인종합복지관","lat":37.57667,"lng":127.00605,"regionCode":"11140","type":"특정계층이용시설","capacity":200,"operatingHours":"주간 운영(야간·주말 미운영)","isOutdoor":false},{"id":"11140-RS12924","name":"을지경로당","lat":37.56605,"lng":126.99879,"regionCode":"11140","type":"특정계층이용시설","capacity":45,"operatingHours":"주간 운영(야간·주말 미운영)","isOutdoor":false},{"id":"11140-RS52467","name":"을지로동주민센터","lat":37.56668,"lng":126.99097,"regionCode":"11140","type":"공공시설","capacity":10,"operatingHours":"주간 운영(야간·주말 미운영)","isOutdoor":false},{"id":"11140-RS53639","name":"매봉산숲속도서관","lat":37.54583,"lng":127.01095,"regionCode":"11140","type":"공공시설","capacity":5,"operatingHours":"주간 운영(야간·주말 미운영)","isOutdoor":false},{"id":"11140-RS56322","name":"중구청","lat":37.56378,"lng":126.99807,"regionCode":"11140","type":"공공시설","capacity":15,"operatingHours":"주간+야간 운영(주말 미운영)","isOutdoor":false},{"id":"11170-RS10528","name":"반포느티나무쉼터","lat":37.50437,"lng":126.99825,"regionCode":"11170","type":"특정계층이용시설","capacity":15,"operatingHours":"주간 운영(야간·주말 미운영)","isOutdoor":false},{"id":"11170-RS21718","name":"갈월경로당","lat":37.54565,"lng":126.9731,"regionCode":"11170","type":"특정계층이용시설","capacity":41,"operatingHours":"주간 운영(야간·주말 미운영)","isOutdoor":false},{"id":"11170-RS41439","name":"삼오경로당","lat":37.52601,"lng":126.96523,"regionCode":"11170","type":"특정계층이용시설","capacity":24,"operatingHours":"주간 운영(야간·주말 미운영)","isOutdoor":false},{"id":"11170-RS52104","name":"이태원2동주민센터","lat":37.54192,"lng":126.99015,"regionCode":"11170","type":"공공시설","capacity":50,"operatingHours":"주간 운영(야간·주말 미운영)","isOutdoor":false},{"id":"11170-RS54751","name":"용산꿈나무종합타운","lat":37.53878,"lng":126.9653,"regionCode":"11170","type":"공공시설","capacity":10,"operatingHours":"주간 운영(야간·주말 미운영)","isOutdoor":false},{"id":"11170-RS55061","name":"반포2동주민센터","lat":37.50439,"lng":126.99825,"regionCode":"11170","type":"공공시설","capacity":10,"operatingHours":"주간+야간·주말 연장운영","isOutdoor":false},{"id":"11170-RS56627","name":"옥수종합사회복지관","lat":37.54044,"lng":127.01273,"regionCode":"11170","type":"공공시설","capacity":10,"operatingHours":"주간 운영(야간·주말 미운영)","isOutdoor":false},{"id":"11170-RS58229","name":"방배본동주민센터","lat":37.49412,"lng":126.98883,"regionCode":"11170","type":"공공시설","capacity":10,"operatingHours":"주간+야간·주말 연장운영","isOutdoor":false},{"id":"11200-RS05596","name":"서울숲경로당","lat":37.54667,"lng":127.04431,"regionCode":"11200","type":"특정계층이용시설","capacity":45,"operatingHours":"주간 운영(야간·주말 미운영)","isOutdoor":false},{"id":"11200-RS05597","name":"상원경로당","lat":37.55006,"lng":127.04502,"regionCode":"11200","type":"특정계층이용시설","capacity":30,"operatingHours":"주간 운영(야간·주말 미운영)","isOutdoor":false},{"id":"11200-RS16948","name":"행당한진(아)제1경로당","lat":37.55682,"lng":127.03036,"regionCode":"11200","type":"특정계층이용시설","capacity":66,"operatingHours":"주간 운영(야간·주말 미운영)","isOutdoor":false},{"id":"11200-RS25107","name":"일송경로당","lat":37.56448,"lng":127.04012,"regionCode":"11200","type":"특정계층이용시설","capacity":20,"operatingHours":"주간 운영(야간·주말 미운영)","isOutdoor":false},{"id":"11200-RS28225","name":"금호베스트빌(아)모아경로당","lat":37.56162,"lng":127.0259,"regionCode":"11200","type":"특정계층이용시설","capacity":12,"operatingHours":"주간 운영(야간·주말 미운영)","isOutdoor":false},{"id":"11200-RS28631","name":"중앙하이츠(아)경로당","lat":37.56319,"lng":127.05523,"regionCode":"11200","type":"특정계층이용시설","capacity":6,"operatingHours":"주간 운영(야간·주말 미운영)","isOutdoor":false},{"id":"11200-RS28673","name":"리버그린동아(아)경로당","lat":37.55299,"lng":127.0374,"regionCode":"11200","type":"특정계층이용시설","capacity":34,"operatingHours":"주간 운영(야간·주말 미운영)","isOutdoor":false},{"id":"11200-RS28683","name":"금호파크힐스(아)제2경로당","lat":37.55302,"lng":127.02454,"regionCode":"11200","type":"특정계층이용시설","capacity":25,"operatingHours":"주간 운영(야간·주말 미운영)","isOutdoor":false},{"id":"11200-RS29699","name":"텐즈힐행복경로당","lat":37.56963,"lng":127.02651,"regionCode":"11200","type":"특정계층이용시설","capacity":34,"operatingHours":"주간 운영(야간·주말 미운영)","isOutdoor":false},{"id":"11200-RS38895","name":"용화경로당","lat":37.56062,"lng":127.05474,"regionCode":"11200","type":"특정계층이용시설","capacity":50,"operatingHours":"주간 운영(야간·주말 미운영)","isOutdoor":false},{"id":"11200-RS49022","name":"응봉경로당","lat":37.55251,"lng":127.03158,"regionCode":"11200","type":"특정계층이용시설","capacity":24,"operatingHours":"주간 운영(야간·주말 미운영)","isOutdoor":false},{"id":"11200-RS51154","name":"성수아트홀(책마루)","lat":37.5454,"lng":127.04695,"regionCode":"11200","type":"공공시설","capacity":40,"operatingHours":"주간 운영(야간·주말 미운영)","isOutdoor":false},{"id":"11200-RS52819","name":"행당2동주민센터","lat":37.55824,"lng":127.02936,"regionCode":"11200","type":"공공시설","capacity":7,"operatingHours":"주간 운영(야간·주말 미운영)","isOutdoor":false},{"id":"11200-RS54408","name":"행당1동주민센터","lat":37.55852,"lng":127.03612,"regionCode":"11200","type":"공공시설","capacity":7,"operatingHours":"주간 운영(야간·주말 미운영)","isOutdoor":false},{"id":"11215-RS02938","name":"신자초스마트휴쉼터","lat":37.53007,"lng":127.07492,"regionCode":"11215","type":"공공시설","capacity":null,"operatingHours":"주간 운영(야간·주말 미운영)","isOutdoor":false},{"id":"11215-RS04895","name":"늘푸른동아APT경로당","lat":37.57286,"lng":127.08072,"regionCode":"11215","type":"특정계층이용시설","capacity":null,"operatingHours":"주간 운영(야간·주말 미운영)","isOutdoor":false},{"id":"11215-RS19094","name":"래미안파크스위트경로당","lat":37.5461,"lng":127.09068,"regionCode":"11215","type":"특정계층이용시설","capacity":35,"operatingHours":"주간 운영(야간·주말 미운영)","isOutdoor":false},{"id":"11215-RS19723","name":"광진구노인회관","lat":37.54715,"lng":127.10402,"regionCode":"11215","type":"특정계층이용시설","capacity":42,"operatingHours":"주간 운영(야간·주말 미운영)","isOutdoor":false},{"id":"11215-RS27080","name":"양마제2경로당","lat":37.55177,"lng":127.07057,"regionCode":"11215","type":"특정계층이용시설","capacity":8,"operatingHours":"주간 운영(야간·주말 미운영)","isOutdoor":false},{"id":"11215-RS28744","name":"자양제3동경로당","lat":37.5319,"lng":127.0743,"regionCode":"11215","type":"특정계층이용시설","capacity":21,"operatingHours":"주간 운영(야간·주말 미운영)","isOutdoor":false},{"id":"11215-RS29239","name":"잠실엘스경로당","lat":37.51426,"lng":127.07968,"regionCode":"11215","type":"특정계층이용시설","capacity":56,"operatingHours":"주간 운영(야간·주말 미운영)","isOutdoor":false},{"id":"11215-RS30543","name":"능동경로당","lat":37.55317,"lng":127.08019,"regionCode":"11215","type":"특정계층이용시설","capacity":47,"operatingHours":"주간 운영(야간·주말 미운영)","isOutdoor":false},{"id":"11215-RS34184","name":"구의제3동도서관","lat":37.53801,"lng":127.09196,"regionCode":"11215","type":"공공시설","capacity":null,"operatingHours":"주간+주말 운영(야간 미운영)","isOutdoor":false},{"id":"11215-RS35584","name":"자양제4동도서관","lat":37.53412,"lng":127.06626,"regionCode":"11215","type":"공공시설","capacity":null,"operatingHours":"주간+주말 운영(야간 미운영)","isOutdoor":false},{"id":"11215-RS35585","name":"아차산숲속도서관","lat":37.55194,"lng":127.102,"regionCode":"11215","type":"공공시설","capacity":null,"operatingHours":"주간 운영(야간·주말 미운영)","isOutdoor":false},{"id":"11215-RS41643","name":"자양구립제2경로당","lat":37.53254,"lng":127.08816,"regionCode":"11215","type":"특정계층이용시설","capacity":39,"operatingHours":"주간 운영(야간·주말 미운영)","isOutdoor":false},{"id":"11215-RS54161","name":"중곡4동주민센터","lat":37.55908,"lng":127.08945,"regionCode":"11215","type":"공공시설","capacity":60,"operatingHours":"주간 운영(야간·주말 미운영)","isOutdoor":false},{"id":"11215-RS56591","name":"구의1동주민센터","lat":37.54252,"lng":127.08576,"regionCode":"11215","type":"공공시설","capacity":49,"operatingHours":"주간 운영(야간·주말 미운영)","isOutdoor":false},{"id":"11230-RS11968","name":"상월곡실버복지센터","lat":37.60586,"lng":127.04809,"regionCode":"11230","type":"특정계층이용시설","capacity":80,"operatingHours":"주간 운영(야간·주말 미운영)","isOutdoor":false},{"id":"11230-RS13621","name":"답십리대우아파트제2경로당","lat":37.57389,"lng":127.05333,"regionCode":"11230","type":"특정계층이용시설","capacity":13,"operatingHours":"주간 운영(야간·주말 미운영)","isOutdoor":false},{"id":"11230-RS18750","name":"마장동자전거체험학습장인근샘물창고","lat":37.57006,"lng":127.04427,"regionCode":"11230","type":"야외시설","capacity":8,"operatingHours":"주간 운영(야간·주말 미운영)","isOutdoor":false},{"id":"11230-RS30457","name":"감초마을경로당","lat":37.58509,"lng":127.03515,"regionCode":"11230","type":"특정계층이용시설","capacity":null,"operatingHours":"주간 운영(야간·주말 미운영)","isOutdoor":false},{"id":"11230-RS32892","name":"홍릉동부아파트제2경로당","lat":37.58535,"lng":127.04508,"regionCode":"11230","type":"특정계층이용시설","capacity":17,"operatingHours":"주간 운영(야간·주말 미운영)","isOutdoor":false},{"id":"11230-RS33693","name":"샛별경로당","lat":37.56807,"lng":127.06743,"regionCode":"11230","type":"특정계층이용시설","capacity":42,"operatingHours":"주간 운영(야간·주말 미운영)","isOutdoor":false},{"id":"11230-RS36003","name":"월곡래미안루나밸리경로당","lat":37.59919,"lng":127.04203,"regionCode":"11230","type":"특정계층이용시설","capacity":null,"operatingHours":"주간 운영(야간·주말 미운영)","isOutdoor":false},{"id":"11230-RS40599","name":"창방경로당","lat":37.57822,"lng":127.05055,"regionCode":"11230","type":"특정계층이용시설","capacity":25,"operatingHours":"주간 운영(야간·주말 미운영)","isOutdoor":false},{"id":"11230-RS53663","name":"성북정보도서관","lat":37.60494,"lng":127.05057,"regionCode":"11230","type":"공공시설","capacity":250,"operatingHours":"주간+주말 운영(야간 미운영)","isOutdoor":false},{"id":"11230-RS56326","name":"전농2동주민센터","lat":37.57805,"lng":127.06001,"regionCode":"11230","type":"공공시설","capacity":76,"operatingHours":"주간 운영(야간·주말 미운영)","isOutdoor":false},{"id":"11260-RS04894","name":"두산제1차APT경로당","lat":37.58165,"lng":127.08389,"regionCode":"11260","type":"특정계층이용시설","capacity":null,"operatingHours":"주간 운영(야간·주말 미운영)","isOutdoor":false},{"id":"11260-RS06745","name":"중앙하이츠APT경로당","lat":37.60345,"lng":127.09812,"regionCode":"11260","type":"특정계층이용시설","capacity":null,"operatingHours":"주간 운영(야간·주말 미운영)","isOutdoor":false},{"id":"11260-RS08287","name":"해모로APT경로당","lat":37.60262,"lng":127.11037,"regionCode":"11260","type":"특정계층이용시설","capacity":null,"operatingHours":"주간 운영(야간·주말 미운영)","isOutdoor":false},{"id":"11260-RS15308","name":"공릉우성아파트경로당","lat":37.62857,"lng":127.07263,"regionCode":"11260","type":"특정계층이용시설","capacity":null,"operatingHours":"주간 운영(야간·주말 미운영)","isOutdoor":false},{"id":"11260-RS20786","name":"(이문)현대아파트제2경로당","lat":37.60229,"lng":127.07067,"regionCode":"11260","type":"특정계층이용시설","capacity":17,"operatingHours":"주간 운영(야간·주말 미운영)","isOutdoor":false},{"id":"11260-RS28342","name":"이편한세상화랑대경로당","lat":37.61637,"lng":127.08297,"regionCode":"11260","type":"특정계층이용시설","capacity":null,"operatingHours":"주간 운영(야간·주말 미운영)","isOutdoor":false},{"id":"11260-RS28930","name":"망우금호어울림APT경로당","lat":37.60101,"lng":127.11034,"regionCode":"11260","type":"특정계층이용시설","capacity":null,"operatingHours":"주간 운영(야간·주말 미운영)","isOutdoor":false},{"id":"11260-RS30919","name":"석관1동삼성(아)경로당","lat":37.61034,"lng":127.06558,"regionCode":"11260","type":"특정계층이용시설","capacity":null,"operatingHours":"주간 운영(야간·주말 미운영)","isOutdoor":false},{"id":"11260-RS31001","name":"상봉2동구립경로당","lat":37.59313,"lng":127.08248,"regionCode":"11260","type":"특정계층이용시설","capacity":31,"operatingHours":"주간 운영(야간·주말 미운영)","isOutdoor":false},{"id":"11260-RS31017","name":"봉황경로당","lat":37.59526,"lng":127.08826,"regionCode":"11260","type":"특정계층이용시설","capacity":50,"operatingHours":"주간 운영(야간·주말 미운영)","isOutdoor":false},{"id":"11260-RS34586","name":"공릉효성아파트경로당","lat":37.62425,"lng":127.08051,"regionCode":"11260","type":"특정계층이용시설","capacity":null,"operatingHours":"주간 운영(야간·주말 미운영)","isOutdoor":false},{"id":"11260-RS35549","name":"신내우남푸르미아APT경로당","lat":37.60622,"lng":127.09893,"regionCode":"11260","type":"특정계층이용시설","capacity":null,"operatingHours":"주간 운영(야간·주말 미운영)","isOutdoor":false},{"id":"11260-RS35712","name":"석관동제1경로당","lat":37.61082,"lng":127.06321,"regionCode":"11260","type":"특정계층이용시설","capacity":null,"operatingHours":"주간 운영(야간·주말 미운영)","isOutdoor":false},{"id":"11260-RS35746","name":"돌곶이경로당","lat":37.60595,"lng":127.06055,"regionCode":"11260","type":"특정계층이용시설","capacity":null,"operatingHours":"주간 운영(야간·주말 미운영)","isOutdoor":false},{"id":"11260-RS36007","name":"성우아파트경로당","lat":37.62643,"lng":127.07713,"regionCode":"11260","type":"특정계층이용시설","capacity":null,"operatingHours":"주간 운영(야간·주말 미운영)","isOutdoor":false},{"id":"11260-RS36045","name":"우방아파트경로당","lat":37.62662,"lng":127.08678,"regionCode":"11260","type":"특정계층이용시설","capacity":null,"operatingHours":"주간 운영(야간·주말 미운영)","isOutdoor":false},{"id":"11260-RS36114","name":"효성화운트빌아파트경로당","lat":37.62734,"lng":127.08713,"regionCode":"11260","type":"특정계층이용시설","capacity":null,"operatingHours":"주간 운영(야간·주말 미운영)","isOutdoor":false},{"id":"11260-RS36161","name":"대동2차아파트경로당","lat":37.62667,"lng":127.07007,"regionCode":"11260","type":"특정계층이용시설","capacity":null,"operatingHours":"주간 운영(야간·주말 미운영)","isOutdoor":false},{"id":"11260-RS44784","name":"용마통합경로당","lat":37.58736,"lng":127.10176,"regionCode":"11260","type":"특정계층이용시설","capacity":23,"operatingHours":"주간 운영(야간·주말 미운영)","isOutdoor":false},{"id":"11260-RS49903","name":"은행길경로당","lat":37.58884,"lng":127.09148,"regionCode":"11260","type":"특정계층이용시설","capacity":26,"operatingHours":"주간 운영(야간·주말 미운영)","isOutdoor":false},{"id":"11260-RS51239","name":"신내1동주민센터","lat":37.60589,"lng":127.09949,"regionCode":"11260","type":"공공시설","capacity":10,"operatingHours":"주간+야간·주말 연장운영","isOutdoor":false},{"id":"11260-RS52591","name":"면목4동주민센터","lat":37.57476,"lng":127.08546,"regionCode":"11260","type":"공공시설","capacity":68,"operatingHours":"주간+야간·주말 연장운영","isOutdoor":false},{"id":"11260-RS53572","name":"묵1동주민센터","lat":37.6124,"lng":127.07855,"regionCode":"11260","type":"공공시설","capacity":15,"operatingHours":"주간+야간·주말 연장운영","isOutdoor":false},{"id":"11260-RS54511","name":"이문2동주민센터","lat":37.60336,"lng":127.0651,"regionCode":"11260","type":"공공시설","capacity":27,"operatingHours":"주간 운영(야간·주말 미운영)","isOutdoor":false},{"id":"11260-RS57105","name":"신내2동주민센터","lat":37.60629,"lng":127.09416,"regionCode":"11260","type":"공공시설","capacity":9,"operatingHours":"주간+야간·주말 연장운영","isOutdoor":false},{"id":"11290-RS05829","name":"정릉3동경로당","lat":37.61127,"lng":127.00737,"regionCode":"11290","type":"특정계층이용시설","capacity":null,"operatingHours":"주간 운영(야간·주말 미운영)","isOutdoor":false},{"id":"11290-RS06539","name":"학수경로당","lat":37.61215,"lng":127.02085,"regionCode":"11290","type":"특정계층이용시설","capacity":null,"operatingHours":"주간 운영(야간·주말 미운영)","isOutdoor":false},{"id":"11290-RS09164","name":"한마음경로당","lat":37.57826,"lng":127.02221,"regionCode":"11290","type":"특정계층이용시설","capacity":35,"operatingHours":"주간 운영(야간·주말 미운영)","isOutdoor":false},{"id":"11290-RS09428","name":"천주교종암동교회","lat":37.59763,"lng":127.03541,"regionCode":"11290","type":"생활밀착민간시설","capacity":5,"operatingHours":"주간 운영(야간·주말 미운영)","isOutdoor":false},{"id":"11290-RS10443","name":"삼선실버복지센터","lat":37.58915,"lng":127.01406,"regionCode":"11290","type":"특정계층이용시설","capacity":542,"operatingHours":"주간 운영(야간·주말 미운영)","isOutdoor":false},{"id":"11290-RS10561","name":"근해안강망수협종암동지점","lat":37.59822,"lng":127.03408,"regionCode":"11290","type":"생활밀착민간시설","capacity":5,"operatingHours":"주간 운영(야간·주말 미운영)","isOutdoor":false},{"id":"11290-RS10562","name":"IBK기업은행종암동지점","lat":37.59981,"lng":127.03443,"regionCode":"11290","type":"생활밀착민간시설","capacity":5,"operatingHours":"주간 운영(야간·주말 미운영)","isOutdoor":false},{"id":"11290-RS10670","name":"새마을금고새종암(제1지점)","lat":37.60119,"lng":127.03386,"regionCode":"11290","type":"생활밀착민간시설","capacity":5,"operatingHours":"주간 운영(야간·주말 미운영)","isOutdoor":false},{"id":"11290-RS21446","name":"우성(아)경로당","lat":37.60094,"lng":127.01488,"regionCode":"11290","type":"특정계층이용시설","capacity":null,"operatingHours":"주간 운영(야간·주말 미운영)","isOutdoor":false},{"id":"11290-RS24097","name":"월곡1동모랫말경로당","lat":37.60635,"lng":127.0329,"regionCode":"11290","type":"특정계층이용시설","capacity":null,"operatingHours":"주간 운영(야간·주말 미운영)","isOutdoor":false},{"id":"11290-RS24787","name":"종암1동SH-VILLE(아)경로당","lat":37.5974,"lng":127.03018,"regionCode":"11290","type":"특정계층이용시설","capacity":null,"operatingHours":"주간 운영(야간·주말 미운영)","isOutdoor":false},{"id":"11290-RS25689","name":"정릉새마을금고","lat":37.60281,"lng":127.01682,"regionCode":"11290","type":"생활밀착민간시설","capacity":10,"operatingHours":"주간 운영(야간·주말 미운영)","isOutdoor":false},{"id":"11290-RS26609","name":"정릉2동장수경로당","lat":37.5991,"lng":127.01099,"regionCode":"11290","type":"특정계층이용시설","capacity":null,"operatingHours":"주간 운영(야간·주말 미운영)","isOutdoor":false},{"id":"11290-RS35836","name":"보문제2경로당","lat":37.58279,"lng":127.01949,"regionCode":"11290","type":"특정계층이용시설","capacity":null,"operatingHours":"주간 운영(야간·주말 미운영)","isOutdoor":false},{"id":"11290-RS36024","name":"돈암신일해피트리(아)경로당","lat":37.59829,"lng":127.0119,"regionCode":"11290","type":"특정계층이용시설","capacity":null,"operatingHours":"주간 운영(야간·주말 미운영)","isOutdoor":false},{"id":"11290-RS36030","name":"길음동부임대(아)송산경로당","lat":37.61025,"lng":127.02486,"regionCode":"11290","type":"특정계층이용시설","capacity":null,"operatingHours":"주간 운영(야간·주말 미운영)","isOutdoor":false},{"id":"11290-RS36065","name":"종암극동(아)경로당","lat":37.59508,"lng":127.03371,"regionCode":"11290","type":"특정계층이용시설","capacity":null,"operatingHours":"주간 운영(야간·주말 미운영)","isOutdoor":false},{"id":"11290-RS36102","name":"고운경로당","lat":37.59976,"lng":127.02121,"regionCode":"11290","type":"특정계층이용시설","capacity":null,"operatingHours":"주간 운영(야간·주말 미운영)","isOutdoor":false},{"id":"11290-RS36164","name":"래미안세레니티경로당","lat":37.59969,"lng":127.03039,"regionCode":"11290","type":"특정계층이용시설","capacity":null,"operatingHours":"주간 운영(야간·주말 미운영)","isOutdoor":false},{"id":"11290-RS36229","name":"길음9단지경성경로당","lat":37.60437,"lng":127.01777,"regionCode":"11290","type":"특정계층이용시설","capacity":null,"operatingHours":"주간 운영(야간·주말 미운영)","isOutdoor":false},{"id":"11290-RS36238","name":"길음동삼부(아)경로당","lat":37.60243,"lng":127.02309,"regionCode":"11290","type":"특정계층이용시설","capacity":null,"operatingHours":"주간 운영(야간·주말 미운영)","isOutdoor":false},{"id":"11290-RS36413","name":"아리랑시네센터","lat":37.6,"lng":127.01376,"regionCode":"11290","type":"공공시설","capacity":10,"operatingHours":"주간+주말 운영(야간 미운영)","isOutdoor":false},{"id":"11290-RS46745","name":"창삼경로당","lat":37.57726,"lng":127.01248,"regionCode":"11290","type":"특정계층이용시설","capacity":41,"operatingHours":"주간 운영(야간·주말 미운영)","isOutdoor":false},{"id":"11290-RS51478","name":"창신3동주민센터","lat":37.57793,"lng":127.01468,"regionCode":"11290","type":"공공시설","capacity":50,"operatingHours":"주간+주말 운영(야간 미운영)","isOutdoor":false},{"id":"11290-RS53231","name":"삼덕마을주민공동이용시설","lat":37.61205,"lng":127.00351,"regionCode":"11290","type":"공공시설","capacity":17,"operatingHours":"주간 운영(야간·주말 미운영)","isOutdoor":false},{"id":"11290-RS55220","name":"정릉1동주민센터","lat":37.60144,"lng":127.01665,"regionCode":"11290","type":"공공시설","capacity":50,"operatingHours":"주간 운영(야간·주말 미운영)","isOutdoor":false},{"id":"11290-RS57343","name":"월곡1동주민센터","lat":37.61062,"lng":127.03579,"regionCode":"11290","type":"공공시설","capacity":50,"operatingHours":"주간 운영(야간·주말 미운영)","isOutdoor":false},{"id":"11290-RS57450","name":"성북스마트패션산업센터","lat":37.58363,"lng":127.01799,"regionCode":"11290","type":"공공시설","capacity":32,"operatingHours":"주간 운영(야간·주말 미운영)","isOutdoor":false},{"id":"11290-RS57729","name":"새마을금고월곡(본점)","lat":37.60374,"lng":127.0424,"regionCode":"11290","type":"생활밀착민간시설","capacity":5,"operatingHours":"주간 운영(야간·주말 미운영)","isOutdoor":false},{"id":"11305-RS00027","name":"한양7차아파트경로당","lat":37.65594,"lng":127.03345,"regionCode":"11305","type":"특정계층이용시설","capacity":50,"operatingHours":"주간 운영(야간·주말 미운영)","isOutdoor":false},{"id":"11305-RS00163","name":"백운경로당","lat":37.6538,"lng":127.0346,"regionCode":"11305","type":"특정계층이용시설","capacity":40,"operatingHours":"주간 운영(야간·주말 미운영)","isOutdoor":false},{"id":"11305-RS01346","name":"브라운스톤쌍문아파트경로당","lat":37.64702,"lng":127.02945,"regionCode":"11305","type":"특정계층이용시설","capacity":40,"operatingHours":"주간 운영(야간·주말 미운영)","isOutdoor":false},{"id":"11305-RS01347","name":"한양아파트경로당","lat":37.64511,"lng":127.02986,"regionCode":"11305","type":"특정계층이용시설","capacity":50,"operatingHours":"주간 운영(야간·주말 미운영)","isOutdoor":false},{"id":"11305-RS01412","name":"요한경로당","lat":37.62471,"lng":127.02297,"regionCode":"11305","type":"특정계층이용시설","capacity":30,"operatingHours":"주간 운영(야간·주말 미운영)","isOutdoor":false},{"id":"11305-RS01977","name":"신동아1차아파트제2경로당","lat":37.65985,"lng":127.02745,"regionCode":"11305","type":"특정계층이용시설","capacity":30,"operatingHours":"주간 운영(야간·주말 미운영)","isOutdoor":false},{"id":"11305-RS01990","name":"동익아파트경로당","lat":37.65185,"lng":127.02466,"regionCode":"11305","type":"특정계층이용시설","capacity":30,"operatingHours":"주간 운영(야간·주말 미운영)","isOutdoor":false},{"id":"11305-RS07905","name":"율곡경로당","lat":37.62704,"lng":127.03119,"regionCode":"11305","type":"특정계층이용시설","capacity":40,"operatingHours":"주간 운영(야간·주말 미운영)","isOutdoor":false},{"id":"11305-RS07910","name":"건양경로당","lat":37.62155,"lng":127.02073,"regionCode":"11305","type":"특정계층이용시설","capacity":33,"operatingHours":"주간 운영(야간·주말 미운영)","isOutdoor":false},{"id":"11305-RS10538","name":"번1동경로당","lat":37.63822,"lng":127.02804,"regionCode":"11305","type":"특정계층이용시설","capacity":25,"operatingHours":"주간 운영(야간·주말 미운영)","isOutdoor":false},{"id":"11305-RS10643","name":"쌍우경로당","lat":37.6545,"lng":127.01495,"regionCode":"11305","type":"특정계층이용시설","capacity":40,"operatingHours":"주간 운영(야간·주말 미운영)","isOutdoor":false},